country,state,city,station,last_update,latitude,longitude,pollutant_id,pollutant_min,pollutant_max,pollutant_avg
India,Andhra_Pradesh,Visakhapatnam,"GVM Corporation, Visakhapatnam - APPCB","03-04-2025 20:00:00",17.72,83.3,NH3,1,4,2
India,Andhra_Pradesh,Visakhapatnam,"GVM Corporation, Visakhapatnam - APPCB","03-04-2025 20:00:00",17.72,83.3,OZONE,9,13,10
India,Arunachal_Pradesh,Naharlagun,"Naharlagun, Naharlagun - APSPCB","03-04-2025 20:00:00",27.103358,93.679645,SO2,6,7,7
India,Assam,Byrnihat,"Central Academy for SFS, Byrnihat - PCBA","03-04-2025 20:00:00",26.071318,91.87488,PM10,63,350,173
India,Assam,Byrnihat,"Central Academy for SFS, Byrnihat - PCBA","03-04-2025 20:00:00",26.071318,91.87488,OZONE,22,88,56
India,Assam,Guwahati,"IITG, Guwahati - PCBA","03-04-2025 20:00:00",26.2028636,91.70046436,NO2,NA,NA,NA
India,Assam,Guwahati,"IITG, Guwahati - PCBA","03-04-2025 20:00:00",26.2028636,91.70046436,NH3,NA,NA,NA
India,Andhra_Pradesh,Amaravati,"Secretariat, Amaravati - APPCB","03-04-2025 20:00:00",16.5150833,80.5181667,CO,6,44,23
India,Andhra_Pradesh,Anantapur,"Gulzarpet, Anantapur - APPCB","03-04-2025 20:00:00",14.675886,77.593027,PM2.5,56,73,64
India,Andhra_Pradesh,Anantapur,"Gulzarpet, Anantapur - APPCB","03-04-2025 20:00:00",14.675886,77.593027,SO2,7,11,10
India,Andhra_Pradesh,Chittoor,"Gangineni Cheruvu, Chittoor - APPCB","03-04-2025 20:00:00",13.204880,79.097889,NH3,3,4,3
India,Andhra_Pradesh,Chittoor,"Gangineni Cheruvu, Chittoor - APPCB","03-04-2025 20:00:00",13.204880,79.097889,OZONE,30,42,33
India,Andhra_Pradesh,Kadapa,"Yerramukkapalli, Kadapa - APPCB","03-04-2025 20:00:00",14.465052,78.824187,PM2.5,50,70,58
India,Andhra_Pradesh,Kadapa,"Yerramukkapalli, Kadapa - APPCB","03-04-2025 20:00:00",14.465052,78.824187,PM10,46,65,54
India,Assam,Guwahati,"IITG, Guwahati - PCBA","03-04-2025 20:00:00",26.2028636,91.70046436,SO2,NA,NA,NA
India,Assam,Guwahati,"Pan Bazaar, Guwahati - PCBA","03-04-2025 20:00:00",26.187500,91.744194,PM2.5,86,312,169
India,Assam,Guwahati,"Pan Bazaar, Guwahati - PCBA","03-04-2025 20:00:00",26.187500,91.744194,PM10,71,143,101
India,Assam,Guwahati,"Pan Bazaar, Guwahati - PCBA","03-04-2025 20:00:00",26.187500,91.744194,SO2,34,65,46
India,Assam,Guwahati,"Pan Bazaar, Guwahati - PCBA","03-04-2025 20:00:00",26.187500,91.744194,CO,22,60,32
India,Assam,Guwahati,"Pan Bazaar, Guwahati - PCBA","03-04-2025 20:00:00",26.187500,91.744194,OZONE,17,18,17
India,Assam,Guwahati,"Railway Colony, Guwahati - PCBA","03-04-2025 20:00:00",26.181742,91.78063,SO2,19,22,20
India,Assam,Nagaon,"Christianpatty, Nagaon - PCBA","03-04-2025 20:00:00",26.349082,92.68449,NO2,6,35,12
India,"Andaman and Nicobar","Sri Vijaya Puram","Police Line, Sri Vijaya Puram - ANPCC","03-04-2025 20:00:00",11.654054,92.734055,OZONE,5,33,19
India,Andhra_Pradesh,Amaravati,"Secretariat, Amaravati - APPCB","03-04-2025 20:00:00",16.5150833,80.5181667,NH3,3,4,3
India,Bihar,Begusarai,"Lohiyanagar, Begusarai - BSPCB","03-04-2025 20:00:00",25.42742023,86.13886079,SO2,2,79,31
India,Bihar,Begusarai,"Lohiyanagar, Begusarai - BSPCB","03-04-2025 20:00:00",25.42742023,86.13886079,OZONE,2,62,24
India,Bihar,Bettiah,"Kamalnath Nagar, Bettiah - BSPCB","03-04-2025 20:00:00",26.80365,84.51954,NO2,27,29,28
India,Andhra_Pradesh,Tirupati,"Vaikuntapuram, Tirupati - APPCB","03-04-2025 20:00:00",13.615387,79.409230,OZONE,5,12,11
India,Andhra_Pradesh,Vijayawada,"HB Colony, Vijayawada - APPCB","03-04-2025 20:00:00",16.536107,80.594233,NO2,13,21,14
India,Andhra_Pradesh,Vijayawada,"HB Colony, Vijayawada - APPCB","03-04-2025 20:00:00",16.536107,80.594233,CO,14,31,19
India,Assam,Sivasagar,"Girls College, Sivasagar - PCBA","03-04-2025 20:00:00",26.987634,94.636574,OZONE,1,10,4
India,Bihar,Araria,"Kharahiya Basti, Araria - BSPCB","03-04-2025 20:00:00",26.146529,87.454184,NH3,11,14,12
India,Bihar,Araria,"Kharahiya Basti, Araria - BSPCB","03-04-2025 20:00:00",26.146529,87.454184,SO2,16,28,25
India,Andhra_Pradesh,Vijayawada,"Rajiv Nagar, Vijayawada - APPCB","03-04-2025 20:00:00",16.554731,80.649110,PM10,42,83,58
India,Andhra_Pradesh,Vijayawada,"Rajiv Nagar, Vijayawada - APPCB","03-04-2025 20:00:00",16.554731,80.649110,NO2,14,17,15
India,Andhra_Pradesh,Vijayawada,"Rajiv Gandhi Park, Vijayawada - APPCB","03-04-2025 20:00:00",16.509717,80.612222,NH3,3,5,4
India,Assam,Sivasagar,"Girls College, Sivasagar - PCBA","03-04-2025 20:00:00",26.987634,94.636574,NH3,2,5,4
India,Bihar,Chhapra,"Darshan Nagar, Chhapra - BSPCB","03-04-2025 20:00:00",25.7808257,84.7446768,NH3,NA,NA,NA
India,Bihar,Chhapra,"Darshan Nagar, Chhapra - BSPCB","03-04-2025 20:00:00",25.7808257,84.7446768,SO2,NA,NA,NA
India,Bihar,Chhapra,"Darshan Nagar, Chhapra - BSPCB","03-04-2025 20:00:00",25.7808257,84.7446768,OZONE,NA,NA,NA
India,Bihar,Gaya,"Kareemganj, Gaya - BSPCB","03-04-2025 20:00:00",24.792403,84.992416,PM10,75,320,155
India,Bihar,Gaya,"Kareemganj, Gaya - BSPCB","03-04-2025 20:00:00",24.792403,84.992416,SO2,15,22,19
India,Bihar,Gaya,"SFTI Kusdihra, Gaya - BSPCB","03-04-2025 20:00:00",24.762518,84.982348,PM2.5,6,75,37
India,Bihar,Gaya,"SFTI Kusdihra, Gaya - BSPCB","03-04-2025 20:00:00",24.762518,84.982348,PM10,43,111,72
India,Bihar,Hajipur,"Industrial Area, Hajipur - BSPCB","03-04-2025 20:00:00",25.697189,85.245900,PM2.5,129,271,190
India,Bihar,Hajipur,"Industrial Area, Hajipur - BSPCB","03-04-2025 20:00:00",25.697189,85.245900,SO2,5,12,7
India,Chandigarh,Chandigarh,"Sector 22, Chandigarh - CPCC","03-04-2025 20:00:00",30.735567,76.775714,PM10,36,177,84
India,Chandigarh,Chandigarh,"Sector 22, Chandigarh - CPCC","03-04-2025 20:00:00",30.735567,76.775714,SO2,12,50,24
India,Chandigarh,Chandigarh,"Sector-25, Chandigarh - CPCC","03-04-2025 20:00:00",30.751462,76.762879,PM10,88,131,104
India,Chandigarh,Chandigarh,"Sector-25, Chandigarh - CPCC","03-04-2025 20:00:00",30.751462,76.762879,CO,7,28,10
India,Chandigarh,Chandigarh,"Sector-53, Chandigarh - CPCC","03-04-2025 20:00:00",30.719859,76.738637,CO,34,87,43
India,Chhattisgarh,Bhilai,"32Bungalows, Bhilai - CECB","03-04-2025 20:00:00",21.194815,81.314770,CO,20,92,29
India,Chhattisgarh,Bhilai,"32Bungalows, Bhilai - CECB","03-04-2025 20:00:00",21.194815,81.314770,OZONE,11,30,24
India,Bihar,Manguraha,"Forest Rest House, Manguraha - BSPCB","03-04-2025 20:00:00",27.308328,84.531742,SO2,6,7,7
India,Bihar,Manguraha,"Forest Rest House, Manguraha - BSPCB","03-04-2025 20:00:00",27.308328,84.531742,CO,3,116,46
India,Bihar,Motihari,"Gandak Colony, Motihari - BSPCB","03-04-2025 20:00:00",26.63086,84.90051,OZONE,11,16,14
India,Bihar,Munger,"Town Hall, Munger - BSPCB","03-04-2025 20:00:00",25.376776,86.471523,PM2.5,57,170,87
India,Bihar,Munger,"Town Hall, Munger - BSPCB","03-04-2025 20:00:00",25.376776,86.471523,PM10,80,161,112
India,Bihar,Munger,"Town Hall, Munger - BSPCB","03-04-2025 20:00:00",25.376776,86.471523,NH3,6,8,7
India,Bihar,Muzaffarpur,"MIT-Daudpur Kothi, Muzaffarpur - BSPCB","03-04-2025 20:00:00",26.1403345,85.3650192,NH3,2,5,3
India,Bihar,Patna,"Govt. High School Shikarpur, Patna - BSPCB","03-04-2025 20:00:00",25.592539,85.227158,PM2.5,NA,NA,NA
India,Bihar,Patna,"Govt. High School Shikarpur, Patna - BSPCB","03-04-2025 20:00:00",25.592539,85.227158,PM10,NA,NA,NA
India,Bihar,Patna,"Govt. High School Shikarpur, Patna - BSPCB","03-04-2025 20:00:00",25.592539,85.227158,SO2,NA,NA,NA
India,Bihar,Purnia,"Mariam Nagar, Purnia - BSPCB","03-04-2025 20:00:00",25.366336,87.117468,NO2,16,20,19
India,Bihar,Saharsa,"Police Line, Saharsa - BSPCB","03-04-2025 20:00:00",25.892357,86.590325,SO2,9,17,13
India,Bihar,Samastipur,"DM Office_Kasipur, Samastipur - BSPCB","03-04-2025 20:00:00",25.859655,85.77944,CO,22,49,28
India,Bihar,Patna,"Muradpur, Patna - BSPCB","03-04-2025 20:00:00",25.619651,85.147382,NH3,1,8,4
India,Bihar,Patna,"Muradpur, Patna - BSPCB","03-04-2025 20:00:00",25.619651,85.147382,OZONE,5,40,33
India,Bihar,Patna,"Rajbansi Nagar, Patna - BSPCB","03-04-2025 20:00:00",25.599486,85.113666,NO2,23,72,41
India,Bihar,Patna,"Rajbansi Nagar, Patna - BSPCB","03-04-2025 20:00:00",25.599486,85.113666,NH3,1,3,1
India,Bihar,Sasaram,"Dada Peer, Sasaram - BSPCB","03-04-2025 20:00:00",24.952822,84.002396,PM10,62,220,117
India,Bihar,Sasaram,"Dada Peer, Sasaram - BSPCB","03-04-2025 20:00:00",24.952822,84.002396,NO2,2,3,2
India,Bihar,Siwan,"Chitragupta Nagar, Siwan - BSPCB","03-04-2025 20:00:00",26.2271665,84.3570427,NO2,5,9,6
India,Bihar,Muzaffarpur,"Buddha Colony, Muzaffarpur - BSPCB","03-04-2025 20:00:00",26.11442,85.39813,SO2,5,23,10
India,Bihar,Muzaffarpur,"MIT-Daudpur Kothi, Muzaffarpur - BSPCB","03-04-2025 20:00:00",26.1403345,85.3650192,PM2.5,22,280,131
India,Bihar,Bhagalpur,"Mayaganj, Bhagalpur - BSPCB","03-04-2025 20:00:00",25.265194,87.012947,OZONE,2,54,30
India,Bihar,Buxar,"Charitra Van, Buxar - BSPCB","03-04-2025 20:00:00",25.567520,83.966379,CO,12,52,22
India,Chhattisgarh,Korba,"Urja Nagar, Korba - CECB","03-04-2025 20:00:00",22.348441,82.549611,OZONE,35,36,36
India,Chhattisgarh,Kunjemura,"OP Jindal School, Kunjemura - CECB","03-04-2025 20:00:00",22.126650,83.483212,NH3,2,2,2
India,Chhattisgarh,Raipur,"Bhatagaon New ISBT, Raipur - CECB","03-04-2025 20:00:00",21.219665,81.630094,PM2.5,6,239,59
India,Chhattisgarh,Raipur,"Bhatagaon New ISBT, Raipur - CECB","03-04-2025 20:00:00",21.219665,81.630094,PM10,54,118,79
India,Chhattisgarh,Raipur,"Bhatagaon New ISBT, Raipur - CECB","03-04-2025 20:00:00",21.219665,81.630094,NH3,2,2,2
India,Chhattisgarh,Chhal,"Nawapara SECL Colony, Chhal - CECB","03-04-2025 20:00:00",22.118125,83.140608,NO2,12,22,17
India,Chhattisgarh,Chhal,"Nawapara SECL Colony, Chhal - CECB","03-04-2025 20:00:00",22.118125,83.140608,NH3,7,7,7
India,Chhattisgarh,Korba,"Rampur, Korba - CECB","03-04-2025 20:00:00",22.368195,82.746431,NO2,23,46,31
India,Chhattisgarh,Korba,"Urja Nagar, Korba - CECB","03-04-2025 20:00:00",22.348441,82.549611,NO2,63,87,77
India,Chhattisgarh,Raipur,"AIIMS, Raipur - CECB","03-04-2025 20:00:00",21.258815,81.578979,SO2,12,55,21
India,Chhattisgarh,Raipur,"AIIMS, Raipur - CECB","03-04-2025 20:00:00",21.258815,81.578979,OZONE,4,34,19
India,Chhattisgarh,Raipur,"AIIMS, Raipur - CECB","03-04-2025 20:00:00",21.258815,81.578979,NO2,NA,NA,NA
India,Chhattisgarh,Raipur,"AIIMS, Raipur - CECB","03-04-2025 20:00:00",21.258815,81.578979,NH3,7,7,7
India,Chhattisgarh,Bhilai,"Civic Center, Bhilai - Bhilai Steel Plant","03-04-2025 20:00:00",21.185571,81.343175,PM10,59,82,68
India,Chhattisgarh,Raipur,"Siltara Phase-II, Raipur - CECB","03-04-2025 20:00:00",21.371751,81.664929,SO2,8,68,21
India,Chhattisgarh,Bilaspur,"Mangala, Bilaspur - NTPC","03-04-2025 20:00:00",22.08815,82.13737,SO2,12,21,18
India,Chhattisgarh,Raipur,"Siltara Phase-II, Raipur - CECB","03-04-2025 20:00:00",21.371751,81.664929,OZONE,5,35,16
India,Chhattisgarh,Tumidih,"OP Jindal Industrial Park, Tumidih - CECB","03-04-2025 20:00:00",22.06631475,83.33820077,NO2,17,88,46
India,Chhattisgarh,Tumidih,"OP Jindal Industrial Park, Tumidih - CECB","03-04-2025 20:00:00",22.06631475,83.33820077,NH3,1,2,2
India,Delhi,Delhi,"Alipur, Delhi - DPCC","03-04-2025 20:00:00",28.815329,77.153010,PM10,66,449,254
India,Delhi,Delhi,"Alipur, Delhi - DPCC","03-04-2025 20:00:00",28.815329,77.153010,NH3,9,12,11
India,Delhi,Delhi,"Anand Vihar, Delhi - DPCC","03-04-2025 20:00:00",28.647622,77.3158090,CO,68,173,90
India,Delhi,Delhi,"Ashok Vihar, Delhi - DPCC","03-04-2025 20:00:00",28.695381,77.181665,SO2,9,34,23
India,Delhi,Delhi,"Aya Nagar, Delhi - IMD","03-04-2025 20:00:00",28.4706914,77.1099364,PM2.5,NA,NA,NA
India,Delhi,Delhi,"Burari Crossing, Delhi - IMD","03-04-2025 20:00:00",28.7256504,77.2011573,OZONE,3,45,30
India,Delhi,Delhi,"Chandni Chowk, Delhi - IITM","03-04-2025 20:00:00",28.656756,77.227234,NH3,NA,NA,NA
India,Delhi,Delhi,"Dwarka-Sector 8, Delhi - DPCC ","03-04-2025 20:00:00",28.5710274,77.0719006,PM10,77,465,273
India,Delhi,Delhi,"Dwarka-Sector 8, Delhi - DPCC ","03-04-2025 20:00:00",28.5710274,77.0719006,NO2,36,81,54
India,Delhi,Delhi,"IGI Airport (T3), Delhi - IMD","03-04-2025 20:00:00",28.5627763,77.1180053,PM10,NA,NA,NA
India,Delhi,Delhi,"IGI Airport (T3), Delhi - IMD","03-04-2025 20:00:00",28.5627763,77.1180053,OZONE,6,111,49
India,Delhi,Delhi,"IHBAS, Dilshad Garden, Delhi - CPCB","03-04-2025 20:00:00",28.6811736,77.3025234,PM10,71,196,148
India,Delhi,Delhi,"ITO, Delhi - CPCB","03-04-2025 20:00:00",28.628624,77.241060,NH3,4,16,9
India,Delhi,Delhi,"Narela, Delhi - DPCC","03-04-2025 20:00:00",28.822836,77.101981,OZONE,3,69,46
India,Delhi,Delhi,"Nehru Nagar, Delhi - DPCC","03-04-2025 20:00:00",28.567890,77.250515,PM2.5,15,342,184
India,Delhi,Delhi,"Nehru Nagar, Delhi - DPCC","03-04-2025 20:00:00",28.567890,77.250515,PM10,68,279,175
India,Delhi,Delhi,"Nehru Nagar, Delhi - DPCC","03-04-2025 20:00:00",28.567890,77.250515,NH3,4,7,6
India,Delhi,Delhi,"Nehru Nagar, Delhi - DPCC","03-04-2025 20:00:00",28.567890,77.250515,SO2,5,34,23
India,Delhi,Delhi,"Lodhi Road, Delhi - IMD","03-04-2025 20:00:00",28.5918245,77.2273074,OZONE,13,29,21
India,Delhi,Delhi,"Mundka, Delhi - DPCC","03-04-2025 20:00:00",28.684678,77.076574,SO2,3,33,17
India,Delhi,Delhi,"NSIT Dwarka, Delhi - CPCB","03-04-2025 20:00:00",28.60909,77.0325413,PM2.5,63,320,188
India,Delhi,Delhi,"Jawaharlal Nehru Stadium, Delhi - DPCC","03-04-2025 20:00:00",28.580280,77.233829,PM10,52,252,156
India,Delhi,Delhi,"Jawaharlal Nehru Stadium, Delhi - DPCC","03-04-2025 20:00:00",28.580280,77.233829,SO2,1,26,7
India,Delhi,Delhi,"Lodhi Road, Delhi - IITM","03-04-2025 20:00:00",28.588333,77.221667,PM2.5,48,280,165
India,Delhi,Delhi,"Nehru Nagar, Delhi - DPCC","03-04-2025 20:00:00",28.567890,77.250515,OZONE,2,220,161
India,Delhi,Delhi,"Okhla Phase-2, Delhi - DPCC","03-04-2025 20:00:00",28.530785,77.271255,PM2.5,27,322,182
India,Delhi,Delhi,"NSIT Dwarka, Delhi - CPCB","03-04-2025 20:00:00",28.60909,77.0325413,OZONE,14,47,38
India,Delhi,Delhi,"ITO, Delhi - CPCB","03-04-2025 20:00:00",28.628624,77.241060,OZONE,1,72,44
India,Delhi,Delhi,"Shadipur, Delhi - CPCB","03-04-2025 20:00:00",28.6514781,77.1473105,CO,21,59,36
India,Delhi,Delhi,"Sirifort, Delhi - CPCB","03-04-2025 20:00:00",28.5504249,77.2159377,PM2.5,48,373,224
India,Delhi,Delhi,"Sirifort, Delhi - CPCB","03-04-2025 20:00:00",28.5504249,77.2159377,NO2,44,48,46
India,Delhi,Delhi,"Sirifort, Delhi - CPCB","03-04-2025 20:00:00",28.5504249,77.2159377,CO,11,119,26
India,Delhi,Delhi,"Sirifort, Delhi - CPCB","03-04-2025 20:00:00",28.5504249,77.2159377,OZONE,20,44,31
India,Delhi,Delhi,"Sonia Vihar, Delhi - DPCC","03-04-2025 20:00:00",28.710508,77.249485,PM10,59,420,183
India,Delhi,Delhi,"Sonia Vihar, Delhi - DPCC","03-04-2025 20:00:00",28.710508,77.249485,NO2,16,132,73
India,Delhi,Delhi,"Sri Aurobindo Marg, Delhi - DPCC","03-04-2025 20:00:00",28.531346,77.190156,PM10,58,260,132
India,Delhi,Delhi,"Sri Aurobindo Marg, Delhi - DPCC","03-04-2025 20:00:00",28.531346,77.190156,NH3,7,10,9
India,Delhi,Delhi,"Vivek Vihar, Delhi - DPCC","03-04-2025 20:00:00",28.672342,77.315260,CO,23,113,42
India,Delhi,Delhi,"Wazirpur, Delhi - DPCC","03-04-2025 20:00:00",28.699793,77.165453,SO2,18,49,34
India,Gujarat,Ahmedabad,"Chandkheda, Ahmedabad - IITM","03-04-2025 20:00:00",23.107969,72.574648,PM10,78,215,148
India,Gujarat,Ahmedabad,"Chandkheda, Ahmedabad - IITM","03-04-2025 20:00:00",23.107969,72.574648,NH3,1,2,1
India,Gujarat,Ahmedabad,"Chandkheda, Ahmedabad - IITM","03-04-2025 20:00:00",23.107969,72.574648,OZONE,2,310,142
India,Gujarat,Ahmedabad,"Gyaspur, Ahmedabad - IITM","03-04-2025 20:00:00",22.977134,72.553024,OZONE,1,83,60
India,Gujarat,Ahmedabad,"Maninagar, Ahmedabad - GPCB","03-04-2025 20:00:00",23.002657,72.591912,PM2.5,NA,NA,NA
India,Delhi,Delhi,"R K Puram, Delhi - DPCC","03-04-2025 20:00:00",28.563262,77.186937,NH3,2,5,4
India,Delhi,Delhi,"R K Puram, Delhi - DPCC","03-04-2025 20:00:00",28.563262,77.186937,SO2,11,66,42
India,Delhi,Delhi,"R K Puram, Delhi - DPCC","03-04-2025 20:00:00",28.563262,77.186937,CO,4,135,29
India,Delhi,Delhi,"Rohini, Delhi - DPCC","03-04-2025 20:00:00",28.732528,77.119920,CO,10,126,34
India,Gujarat,Ahmedabad,"SAC ISRO Bopal, Ahmedabad - IITM","03-04-2025 20:00:00",23.041137,72.456691,NH3,1,6,3
India,Gujarat,Ahmedabad,"Sardar Vallabhbhai Patel Stadium, Ahmedabad - IITM","03-04-2025 20:00:00",23.043070,72.562968,NO2,24,107,67
India,Gujarat,Ahmedabad,"Sardar Vallabhbhai Patel Stadium, Ahmedabad - IITM","03-04-2025 20:00:00",23.043070,72.562968,NH3,5,46,18
India,Gujarat,Ahmedabad,"Raikhad, Ahmedabad - IITM","03-04-2025 20:00:00",23.020509,72.579261,NO2,13,136,61
India,Gujarat,Ahmedabad,"Raikhad, Ahmedabad - IITM","03-04-2025 20:00:00",23.020509,72.579261,OZONE,2,132,102
India,Gujarat,Ahmedabad,"Rakhial, Ahmedabad - IITM","03-04-2025 20:00:00",23.016834,72.625775,NO2,1,18,7
India,Gujarat,Ahmedabad,"Sardar Vallabhbhai Patel Stadium, Ahmedabad - IITM","03-04-2025 20:00:00",23.043070,72.562968,CO,50,189,64
India,Gujarat,Ankleshwar,"GIDC, Ankleshwar - GPCB","03-04-2025 20:00:00",21.613267,73.010555,NO2,82,123,105
India,Delhi,Delhi,"Okhla Phase-2, Delhi - DPCC","03-04-2025 20:00:00",28.530785,77.271255,SO2,3,39,20
India,Delhi,Delhi,"Okhla Phase-2, Delhi - DPCC","03-04-2025 20:00:00",28.530785,77.271255,CO,29,127,56
India,Delhi,Delhi,"Okhla Phase-2, Delhi - DPCC","03-04-2025 20:00:00",28.530785,77.271255,OZONE,5,205,154
India,Gujarat,Gandhinagar,"IIPHG Lekawada, Gandhinagar - IITM","03-04-2025 20:00:00",23.243639,72.68994,PM10,NA,NA,NA
India,Delhi,Delhi,"Punjabi Bagh, Delhi - DPCC","03-04-2025 20:00:00",28.674045,77.131023,CO,7,104,20
India,Haryana,Gurugram,"NISE Gwal Pahari, Gurugram - IMD","03-04-2025 20:00:00",28.422681,77.148944,CO,4,48,11
India,Haryana,Gurugram,"NISE Gwal Pahari, Gurugram - IMD","03-04-2025 20:00:00",28.422681,77.148944,OZONE,25,96,84
India,Haryana,Panchgaon,"Amity University, Panchgaon - IITM","03-04-2025 20:00:00",28.3153,76.9143,PM2.5,NA,NA,NA
India,Haryana,Panchgaon,"Amity University, Panchgaon - IITM","03-04-2025 20:00:00",28.3153,76.9143,SO2,10,39,22
India,Jammu_and_Kashmir,Srinagar,"Rajbagh, Srinagar - JKSPCB","03-04-2025 20:00:00",34.066206,74.819820,PM2.5,43,96,62
India,Karnataka,Bengaluru,"Jayanagar 5th Block, Bengaluru - KSPCB","03-04-2025 20:00:00",12.920984,77.584908,CO,2,36,16
India,Karnataka,Bengaluru,"RVCE-Mailasandra, Bengaluru - KSPCB","03-04-2025 20:00:00",12.921418,77.502466,PM2.5,55,57,56
India,Karnataka,Bengaluru,"RVCE-Mailasandra, Bengaluru - KSPCB","03-04-2025 20:00:00",12.921418,77.502466,SO2,5,6,6
India,Karnataka,Bengaluru,"RVCE-Mailasandra, Bengaluru - KSPCB","03-04-2025 20:00:00",12.921418,77.502466,OZONE,23,24,24
India,Karnataka,Bengaluru,"Sanegurava Halli, Bengaluru - KSPCB","03-04-2025 20:00:00",12.990328,77.5431385,PM10,38,43,40
India,Jharkhand,Dhanbad,"Sardar Patel Nagar, Dhanbad - JSPCB","03-04-2025 20:00:00",23.80569,86.44268,OZONE,17,51,40
India,Karnataka,Bagalkot,"Vidayagiri, Bagalkot - KSPCB","03-04-2025 20:00:00",16.172806,75.659694,PM10,45,53,50
India,Karnataka,Bagalkot,"Vidayagiri, Bagalkot - KSPCB","03-04-2025 20:00:00",16.172806,75.659694,NO2,9,10,9
India,Karnataka,Belgaum,"Ramteerth Nagar, Belgaum - KSPCB","03-04-2025 20:00:00",15.888653,74.541751,PM2.5,20,44,29
India,Karnataka,Bengaluru,"Bapuji Nagar, Bengaluru - KSPCB","03-04-2025 20:00:00",12.951913,77.539784,SO2,20,45,31
India,Karnataka,Bengaluru,"City Railway Station, Bengaluru - KSPCB","03-04-2025 20:00:00",12.9756843,77.5660749,PM10,89,106,97
India,Karnataka,Bengaluru,"City Railway Station, Bengaluru - KSPCB","03-04-2025 20:00:00",12.9756843,77.5660749,NO2,32,35,33
India,Karnataka,Bengaluru,"Hombegowda Nagar, Bengaluru - KSPCB","03-04-2025 20:00:00",12.938539,77.590100,PM10,23,64,45
India,Karnataka,Belgaum,"Ramteerth Nagar, Belgaum - KSPCB","03-04-2025 20:00:00",15.888653,74.541751,OZONE,19,19,19
India,Karnataka,Bengaluru,"BTM Layout, Bengaluru - CPCB","03-04-2025 20:00:00",12.9135218,77.5950804,PM2.5,34,70,45
India,Karnataka,Bengaluru,"BTM Layout, Bengaluru - CPCB","03-04-2025 20:00:00",12.9135218,77.5950804,OZONE,29,30,30
India,Karnataka,Bengaluru,"Bapuji Nagar, Bengaluru - KSPCB","03-04-2025 20:00:00",12.951913,77.539784,PM2.5,26,76,48
India,Gujarat,Surat,"Science Center, Surat - SMC","03-04-2025 20:00:00",21.170046,72.795405,PM2.5,11,57,31
India,Gujarat,Surat,"Science Center, Surat - SMC","03-04-2025 20:00:00",21.170046,72.795405,NO2,13,22,16
India,Gujarat,Vapi,"Phase-1 GIDC, Vapi - GPCB","03-04-2025 20:00:00",20.362421,72.918013,PM2.5,65,225,117
India,Gujarat,Vapi,"Phase-1 GIDC, Vapi - GPCB","03-04-2025 20:00:00",20.362421,72.918013,OZONE,2,2,2
India,Jharkhand,Dhanbad,"Sardar Patel Nagar, Dhanbad - JSPCB","03-04-2025 20:00:00",23.80569,86.44268,NO2,126,127,127
India,Jharkhand,Dhanbad,"Sardar Patel Nagar, Dhanbad - JSPCB","03-04-2025 20:00:00",23.80569,86.44268,SO2,25,34,30
India,Gujarat,Gandhinagar,"Sector-10, Gandhinagar - GPCB","03-04-2025 20:00:00",23.221714,72.654328,NO2,22,25,24
India,Gujarat,Gandhinagar,"Sector-10, Gandhinagar - GPCB","03-04-2025 20:00:00",23.221714,72.654328,CO,6,86,18
India,Karnataka,Madikeri,"Stuart Hill, Madikeri - KSPCB","03-04-2025 20:00:00",12.415911,75.735050,PM10,18,40,30
India,Karnataka,Madikeri,"Stuart Hill, Madikeri - KSPCB","03-04-2025 20:00:00",12.415911,75.735050,NO2,6,19,8
India,Karnataka,Madikeri,"Stuart Hill, Madikeri - KSPCB","03-04-2025 20:00:00",12.415911,75.735050,NH3,1,2,1
India,Karnataka,Madikeri,"Stuart Hill, Madikeri - KSPCB","03-04-2025 20:00:00",12.415911,75.735050,OZONE,3,6,5
India,Karnataka,Mangalore,"Kadri, Mangalore - KSPCB","03-04-2025 20:00:00",12.889250,74.853000,PM2.5,16,35,30
India,Karnataka,Mangalore,"Kadri, Mangalore - KSPCB","03-04-2025 20:00:00",12.889250,74.853000,PM10,19,40,35
India,Karnataka,Mangalore,"Kadri, Mangalore - KSPCB","03-04-2025 20:00:00",12.889250,74.853000,NH3,1,2,1
India,Karnataka,Mangalore,"Kadri, Mangalore - KSPCB","03-04-2025 20:00:00",12.889250,74.853000,SO2,6,8,7
India,Karnataka,Bengaluru,"Shivapura_Peenya, Bengaluru - KSPCB","03-04-2025 20:00:00",13.0246342,77.5080115,NH3,2,2,2
India,Karnataka,Bengaluru,"Silk Board, Bengaluru - KSPCB","03-04-2025 20:00:00",12.917348,77.622813,PM2.5,24,83,56
India,Karnataka,Bengaluru,"Silk Board, Bengaluru - KSPCB","03-04-2025 20:00:00",12.917348,77.622813,OZONE,2,84,14
India,Karnataka,Chikkaballapur,"Chikkaballapur Rural, Chikkaballapur - KSPCB","03-04-2025 20:00:00",13.428828,77.731418,PM10,20,94,63
India,Karnataka,Gadag,"Panchal Nagar, Gadag - KSPCB","03-04-2025 20:00:00",15.411456,75.638133,PM10,32,71,54
India,Karnataka,Gadag,"Panchal Nagar, Gadag - KSPCB","03-04-2025 20:00:00",15.411456,75.638133,NH3,1,3,2
India,Karnataka,Haveri,"Ashwini Nagar, Haveri - KSPCB","03-04-2025 20:00:00",14.791800,75.389600,NH3,4,5,4
India,Karnataka,Haveri,"Ashwini Nagar, Haveri - KSPCB","03-04-2025 20:00:00",14.791800,75.389600,OZONE,NA,NA,NA
India,Karnataka,Koppal,"Diwator Nagar, Koppal - KSPCB","03-04-2025 20:00:00",15.347630,76.181767,NO2,12,27,21
India,Karnataka,Koppal,"Diwator Nagar, Koppal - KSPCB","03-04-2025 20:00:00",15.347630,76.181767,NH3,1,3,2
India,Karnataka,Koppal,"Diwator Nagar, Koppal - KSPCB","03-04-2025 20:00:00",15.347630,76.181767,SO2,13,30,23
India,Karnataka,Koppal,"Diwator Nagar, Koppal - KSPCB","03-04-2025 20:00:00",15.347630,76.181767,CO,12,28,25
India,Karnataka,Chikkaballapur,"Chikkaballapur Rural, Chikkaballapur - KSPCB","03-04-2025 20:00:00",13.428828,77.731418,CO,12,24,15
India,Karnataka,Chikkamagaluru,"Kalyana Nagara, Chikkamagaluru - KSPCB","03-04-2025 20:00:00",13.328028,75.797056,NH3,2,3,2
India,Karnataka,Dharwad,"Kalabhavan, Dharwad - KSPCB","03-04-2025 20:00:00",15.459706,75.008381,PM2.5,42,85,54
India,Karnataka,Dharwad,"Kalabhavan, Dharwad - KSPCB","03-04-2025 20:00:00",15.459706,75.008381,SO2,1,2,2
India,Karnataka,Dharwad,"Kalabhavan, Dharwad - KSPCB","03-04-2025 20:00:00",15.459706,75.008381,OZONE,6,26,16
India,Karnataka,Kalaburagi,"Mahatma Basaveswar Colony, Kalaburgi - KSPCB","03-04-2025 20:00:00",17.336318,76.847397,PM2.5,17,63,31
India,Karnataka,Kalaburagi,"Lal Bahadur Shastri Nagar, Kalaburagi - KSPCB","03-04-2025 20:00:00",17.321993,76.822628,NH3,1,5,2
India,Karnataka,Mangalore,"Kadri, Mangalore - KSPCB","03-04-2025 20:00:00",12.889250,74.853000,OZONE,34,34,34
India,Kerala,Eloor,"Udyogamandal, Eloor - Kerala PCB","03-04-2025 20:00:00",10.073232,76.302765,NO2,7,8,8
India,Kerala,Eloor,"Udyogamandal, Eloor - Kerala PCB","03-04-2025 20:00:00",10.073232,76.302765,SO2,3,3,3
India,Kerala,Kannur,"Thavakkara, Kannur - Kerala PCB","03-04-2025 20:00:00",11.875000,75.373200,NH3,1,2,1
India,Kerala,Kollam,"Polayathode, Kollam - Kerala PCB","03-04-2025 20:00:00",8.8787,76.6073,OZONE,30,36,36
India,Kerala,Thiruvananthapuram,"Kariavattom, Thiruvananthapuram - Kerala PCB","03-04-2025 20:00:00",8.563700,76.886500,NH3,1,1,1
India,Kerala,Thiruvananthapuram,"Kariavattom, Thiruvananthapuram - Kerala PCB","03-04-2025 20:00:00",8.563700,76.886500,OZONE,36,37,36
India,Kerala,Thiruvananthapuram,"Plammoodu, Thiruvananthapuram - Kerala PCB","03-04-2025 20:00:00",8.5149093,76.9435879,PM10,11,70,36
India,"Madhya Pradesh",Indore,"Airport Area, Indore - IMC","03-04-2025 20:00:00",22.7289,75.8076,CO,10,12,10
India,"Madhya Pradesh",Indore,"Chhoti Gwaltoli, Indore - MPPCB","03-04-2025 20:00:00",22.4310,75.5213,PM2.5,55,180,88
India,"Madhya Pradesh",Indore,"Chhoti Gwaltoli, Indore - MPPCB","03-04-2025 20:00:00",22.4310,75.5213,CO,22,103,59
India,"Madhya Pradesh",Indore,"Regional Park, Indore - IMC","03-04-2025 20:00:00",22.6780,75.8559,PM2.5,NA,NA,NA
India,"Madhya Pradesh",Indore,"Regional Park, Indore - IMC","03-04-2025 20:00:00",22.6780,75.8559,CO,28,42,33
India,Kerala,Thiruvananthapuram,"Plammoodu, Thiruvananthapuram - Kerala PCB","03-04-2025 20:00:00",8.5149093,76.9435879,CO,11,44,18
India,Kerala,Thrissur,"Corporation Ground, Thrissur - Kerala PCB","03-04-2025 20:00:00",10.532400,76.215900,PM2.5,47,58,51
India,Kerala,Thrissur,"Corporation Ground, Thrissur - Kerala PCB","03-04-2025 20:00:00",10.532400,76.215900,PM10,55,67,59
India,Kerala,Thrissur,"Corporation Ground, Thrissur - Kerala PCB","03-04-2025 20:00:00",10.532400,76.215900,NO2,8,10,9
India,Karnataka,Tumakuru,"Thimmalapura, Tumakuru - KSPCB","03-04-2025 20:00:00",13.377516,77.099072,NO2,18,18,18
India,Karnataka,Yadgir,"Collector Office, Yadgir - KSPCB","03-04-2025 20:00:00",16.7602,77.1428,PM2.5,33,93,46
India,Kerala,Eloor,"Udyogamandal, Eloor - Kerala PCB","03-04-2025 20:00:00",10.073232,76.302765,PM2.5,42,95,68
India,Karnataka,Mysuru,"Hebbal 1st Stage, Mysuru - KSPCB","03-04-2025 20:00:00",12.21041,76.37376,SO2,1,22,8
India,Karnataka,Shivamogga,"Vinoba Nagara, Shivamogga - KSPCB","03-04-2025 20:00:00",13.940000,75.555917,NO2,21,28,23
India,"Madhya Pradesh",Gwalior,"City Center, Gwalior - MPPCB","03-04-2025 20:00:00",26.203442,78.193251,NH3,2,3,2
India,"Madhya Pradesh",Gwalior,"Deen Dayal Nagar, Gwalior - MPPCB","03-04-2025 20:00:00",26.259242,78.216432,NO2,16,79,50
India,"Madhya Pradesh",Bhopal,"Idgah Hills, Bhopal - MPPCB","03-04-2025 20:00:00",23.264759,77.381568,CO,20,71,40
India,"Madhya Pradesh",Bhopal,"Idgah Hills, Bhopal - MPPCB","03-04-2025 20:00:00",23.264759,77.381568,OZONE,61,113,97
India,"Madhya Pradesh",Dewas,"Bhopal Chauraha, Dewas - MPPCB","03-04-2025 20:00:00",22.9682591,76.064118,NO2,75,160,91
India,"Madhya Pradesh",Dewas,"Bhopal Chauraha, Dewas - MPPCB","03-04-2025 20:00:00",22.9682591,76.064118,SO2,51,79,60
India,"Madhya Pradesh",Gwalior,"Maharaj Bada, Gwalior - MPPCB","03-04-2025 20:00:00",26.200388,78.147714,NH3,2,2,2
India,"Madhya Pradesh",Singrauli,"Suryakiran Bhawan NCL, Singrauli - MPPCB","03-04-2025 20:00:00",24.108970,82.645580,CO,34,107,39
India,"Madhya Pradesh",Singrauli,"Suryakiran Bhawan NCL, Singrauli - MPPCB","03-04-2025 20:00:00",24.108970,82.645580,OZONE,3,106,85
India,"Madhya Pradesh",Ujjain,"Mahakaleshwar Temple, Ujjain - MPPCB","03-04-2025 20:00:00","23.182719 ","75.768218 ",PM10,30,99,55
India,"Madhya Pradesh",Ujjain,"Mahakaleshwar Temple, Ujjain - MPPCB","03-04-2025 20:00:00","23.182719 ","75.768218 ",CO,16,112,36
India,"Madhya Pradesh",Ujjain,"Mahakaleshwar Temple, Ujjain - MPPCB","03-04-2025 20:00:00","23.182719 ","75.768218 ",OZONE,45,65,47
India,Maharashtra,Ahmednagar,"Tarakpur, Ahmednagar - MPCB","03-04-2025 20:00:00",19.10122,74.73339,PM10,NA,NA,NA
India,Maharashtra,Akola,"Ramdaspeth, Akola - MPCB","03-04-2025 20:00:00",20.719516,77.000253,NH3,5,9,7
India,Maharashtra,Amravati,"Shivneri Colony, Amravati - MPCB","03-04-2025 20:00:00",20.9402359,77.7895248,NO2,8,29,13
India,"Madhya Pradesh",Pithampur,"Sector-2 Industrial Area, Pithampur - MPPCB","03-04-2025 20:00:00",22.624758,75.675238,NH3,3,6,4
India,"Madhya Pradesh",Ratlam,"Shasthri Nagar, Ratlam - IPCA Lab","03-04-2025 20:00:00",23.331731,75.045981,PM10,89,295,140
India,"Madhya Pradesh",Ratlam,"Shasthri Nagar, Ratlam - IPCA Lab","03-04-2025 20:00:00",23.331731,75.045981,NO2,6,76,27
India,"Madhya Pradesh",Sagar,"Civil Lines, Sagar - MPPCB","03-04-2025 20:00:00",23.838586,78.759431,NO2,11,46,18
India,"Madhya Pradesh",Sagar,"Civil Lines, Sagar - MPPCB","03-04-2025 20:00:00",23.838586,78.759431,CO,49,75,56
India,"Madhya Pradesh",Sagar,"Deen Dayal Nagar, Sagar - MPPCB","03-04-2025 20:00:00",23.8640158,78.80289321,PM10,37,87,67
India,"Madhya Pradesh",Sagar,"Deen Dayal Nagar, Sagar - MPPCB","03-04-2025 20:00:00",23.8640158,78.80289321,CO,44,76,49
India,"Madhya Pradesh",Satna,"Bandhavgar Colony, Satna - Birla Cement","03-04-2025 20:00:00",24.58434363,80.8549414,NO2,12,12,12
India,Maharashtra,Aurangabad,"Rachnakar Colony, Aurangabad - MPCB","03-04-2025 20:00:00",19.863756,75.321188,PM2.5,56,132,79
India,Maharashtra,Aurangabad,"Rachnakar Colony, Aurangabad - MPCB","03-04-2025 20:00:00",19.863756,75.321188,PM10,52,170,91
India,Maharashtra,Aurangabad,"Rachnakar Colony, Aurangabad - MPCB","03-04-2025 20:00:00",19.863756,75.321188,NO2,15,137,42
India,Maharashtra,Badlapur,"Katrap, Badlapur - MPCB","03-04-2025 20:00:00",19.16485,73.23409,NH3,3,8,5
India,Maharashtra,Badlapur,"Katrap, Badlapur - MPCB","03-04-2025 20:00:00",19.16485,73.23409,CO,12,35,15
India,Maharashtra,Belapur,"CBD Belapur, Belapur - MPCB","03-04-2025 20:00:00",19.0243902,73.0406721,PM2.5,20,136,69
India,Maharashtra,Belapur,"CBD Belapur, Belapur - MPCB","03-04-2025 20:00:00",19.0243902,73.0406721,PM10,79,135,105
India,Maharashtra,Belapur,"CBD Belapur, Belapur - MPCB","03-04-2025 20:00:00",19.0243902,73.0406721,NO2,14,39,26
India,Maharashtra,Belapur,"CBD Belapur, Belapur - MPCB","03-04-2025 20:00:00",19.0243902,73.0406721,OZONE,5,94,47
India,"Madhya Pradesh",Indore,"Residency Area, Indore - IMC","03-04-2025 20:00:00",22.7084,75.8815,NO2,8,15,12
India,"Madhya Pradesh",Indore,"Residency Area, Indore - IMC","03-04-2025 20:00:00",22.7084,75.8815,CO,16,19,17
India,"Madhya Pradesh",Indore,"Residency Area, Indore - IMC","03-04-2025 20:00:00",22.7084,75.8815,OZONE,11,23,19
India,"Madhya Pradesh",Jabalpur,"Govindh Bhavan Colony, Jabalpur - JMC","03-04-2025 20:00:00",23.163174,79.973061,OZONE,21,94,71
India,"Madhya Pradesh",Jabalpur,"Gupteshwar, Jabalpur - JMC","03-04-2025 20:00:00",23.142888,79.916147,NO2,19,116,45
India,"Madhya Pradesh",Jabalpur,"Suhagi, Jabalpur - JMC","03-04-2025 20:00:00",23.218135,79.957770,OZONE,5,67,43
India,"Madhya Pradesh",Katni,"Gole Bazar, Katni - MPPCB","03-04-2025 20:00:00",23.50016,80.23284,OZONE,22,115,90
India,"Madhya Pradesh",Maihar,"Sahilara, Maihar - KJS Cements","03-04-2025 20:00:00",24.2613009,80.7231783,SO2,4,5,5
India,Maharashtra,Amravati,"Shivneri Colony, Amravati - MPCB","03-04-2025 20:00:00",20.9402359,77.7895248,OZONE,37,89,74
India,Maharashtra,Amravati,"Shri Shivaji Science College, Amaravati - MPCB","03-04-2025 20:00:00",20.939198,77.765701,PM2.5,66,98,82
India,Maharashtra,Aurangabad,"MIDC Chilkalthana, Aurangabad - MPCB","03-04-2025 20:00:00",19.875620,75.387310,OZONE,18,80,67
India,"Madhya Pradesh",Mandideep,"Sector-D Industrial Area, Mandideep - MPPCB","03-04-2025 20:00:00",23.108440,77.511428,NO2,29,132,66
India,"Madhya Pradesh",Jabalpur,"Marhatal, Jabalpur - MPPCB","03-04-2025 20:00:00",23.168606,79.932247,CO,9,103,28
India,Maharashtra,Boisar,"Khaira, Boisar - MPCB","03-04-2025 20:00:00",19.786089,72.757971,NO2,12,55,27
India,Maharashtra,Mumbai,"Chembur, Mumbai - MPCB","03-04-2025 20:00:00",19.0364585,72.8954371,NO2,19,49,36
India,Maharashtra,Mumbai,"Chembur, Mumbai - MPCB","03-04-2025 20:00:00",19.0364585,72.8954371,SO2,1,100,18
India,Maharashtra,Mumbai,"Chembur, Mumbai - MPCB","03-04-2025 20:00:00",19.0364585,72.8954371,OZONE,14,68,47
India,Maharashtra,Mumbai,"Chhatrapati Shivaji Intl. Airport (T2), Mumbai - MPCB","03-04-2025 20:00:00",19.10078,72.87462,PM2.5,43,59,50
India,Maharashtra,Mumbai,"Chhatrapati Shivaji Intl. Airport (T2), Mumbai - MPCB","03-04-2025 20:00:00",19.10078,72.87462,CO,23,32,24
India,Maharashtra,Mumbai,"Chhatrapati Shivaji Intl. Airport (T2), Mumbai - MPCB","03-04-2025 20:00:00",19.10078,72.87462,OZONE,7,8,7
India,Maharashtra,Chandrapur,"Chauhan Colony, Chandrapur - MPCB","03-04-2025 20:00:00",19.962900,79.298714,CO,10,20,11
India,Maharashtra,Chandrapur,"Chauhan Colony, Chandrapur - MPCB","03-04-2025 20:00:00",19.962900,79.298714,OZONE,20,38,24
India,Maharashtra,Chandrapur,"MIDC Khutala, Chandrapur - MPCB","03-04-2025 20:00:00",19.9775302,79.2337086,PM10,98,154,120
India,Maharashtra,Dhule,"Deopur, Dhule - MPCB","03-04-2025 20:00:00",20.918946,74.776388,PM10,NA,NA,NA
India,Maharashtra,Jalna,"Old MIDC, Jalna - MPCB","03-04-2025 20:00:00",19.854616,75.905894,NO2,NA,NA,NA
India,Maharashtra,Jalna,"Old MIDC, Jalna - MPCB","03-04-2025 20:00:00",19.854616,75.905894,CO,7,14,10
India,Maharashtra,Jalna,"Old MIDC, Jalna - MPCB","03-04-2025 20:00:00",19.854616,75.905894,OZONE,5,62,39
India,Maharashtra,Kalyan,"Khadakpada, Kalyan - MPCB","03-04-2025 20:00:00",19.25292,73.142019,PM2.5,54,87,69
India,Maharashtra,Mumbai,"Borivali East, Mumbai - MPCB","03-04-2025 20:00:00",19.2243333,72.8658113,NO2,26,72,35
India,Maharashtra,Mumbai,"Chakala-Andheri East, Mumbai - IITM","03-04-2025 20:00:00",19.11074,72.86084,PM2.5,66,131,100
India,Maharashtra,Mumbai,"Bandra Kurla Complex, Mumbai - MPCB","03-04-2025 20:00:00",19.065931,72.862131,PM10,39,125,75
India,Maharashtra,Mumbai,"Bandra Kurla Complex, Mumbai - MPCB","03-04-2025 20:00:00",19.065931,72.862131,NH3,5,14,8
India,Maharashtra,Mumbai,"Bandra Kurla Complex, Mumbai - MPCB","03-04-2025 20:00:00",19.065931,72.862131,CO,16,92,30
India,Maharashtra,Kolhapur,"Shivaji University, Kolhapur - MPCB","03-04-2025 20:00:00",16.6870449,74.2505872,SO2,1,3,1
India,Maharashtra,Kolhapur,"Shivaji University, Kolhapur - MPCB","03-04-2025 20:00:00",16.6870449,74.2505872,CO,8,24,16
India,Maharashtra,Kolhapur,"Sinchan Bhavan, Kolhapur - MPCB","03-04-2025 20:00:00",16.7143745,74.2426398,OZONE,14,103,60
India,Maharashtra,Kalyan,"Pimpleshwar Mandir, Kalyan - MPCB","03-04-2025 20:00:00",19.192056,72.9585188,PM10,50,76,62
India,Maharashtra,Malegaon,"Mahesh Nagar, Malegaon - MPCB","03-04-2025 20:00:00",20.555712,74.529236,PM10,6,365,146
India,Maharashtra,Nagpur,"Mahal, Nagpur - MPCB","03-04-2025 20:00:00",21.14472,79.107595,SO2,2,67,38
India,Maharashtra,Nagpur,"Mahal, Nagpur - MPCB","03-04-2025 20:00:00",21.14472,79.107595,OZONE,16,42,26
India,Maharashtra,Nagpur,"Opp GPO Civil Lines, Nagpur - MPCB","03-04-2025 20:00:00",21.152875,79.0517531,NO2,16,62,35
India,Maharashtra,Nagpur,"Opp GPO Civil Lines, Nagpur - MPCB","03-04-2025 20:00:00",21.152875,79.0517531,NH3,3,6,5
India,Maharashtra,Nagpur,"Opp GPO Civil Lines, Nagpur - MPCB","03-04-2025 20:00:00",21.152875,79.0517531,SO2,9,67,23
India,Maharashtra,Nagpur,"Ram Nagar, Nagpur - MPCB","03-04-2025 20:00:00",21.143383,79.048912,PM10,73,166,116
India,Maharashtra,Nagpur,"Ram Nagar, Nagpur - MPCB","03-04-2025 20:00:00",21.143383,79.048912,SO2,1,18,6
India,Maharashtra,Nanded,"Sneh Nagar, Nanded - MPCB","03-04-2025 20:00:00",19.173852,77.296291,PM2.5,NA,NA,NA
India,Maharashtra,Nanded,"Sneh Nagar, Nanded - MPCB","03-04-2025 20:00:00",19.173852,77.296291,PM10,NA,NA,NA
India,Maharashtra,Nanded,"Sneh Nagar, Nanded - MPCB","03-04-2025 20:00:00",19.173852,77.296291,NO2,NA,NA,NA
India,Maharashtra,Nanded,"Sneh Nagar, Nanded - MPCB","03-04-2025 20:00:00",19.173852,77.296291,SO2,NA,NA,NA
India,Maharashtra,Mumbai,"Colaba, Mumbai - MPCB","03-04-2025 20:00:00",18.910000,72.820000,SO2,NA,NA,NA
India,Maharashtra,Mumbai,"Colaba, Mumbai - MPCB","03-04-2025 20:00:00",18.910000,72.820000,CO,26,29,26
India,Maharashtra,Mumbai,"Deonar, Mumbai - IITM","03-04-2025 20:00:00",19.04946,72.9230,PM10,99,175,129
India,Maharashtra,Mumbai,"Deonar, Mumbai - IITM","03-04-2025 20:00:00",19.04946,72.9230,NO2,14,56,30
India,Maharashtra,Mumbai,"Ghatkopar, Mumbai - BMC","03-04-2025 20:00:00",19.083694,72.920967,NH3,3,18,7
India,Maharashtra,Mumbai,"Ghatkopar, Mumbai - BMC","03-04-2025 20:00:00",19.083694,72.920967,SO2,1,12,4
India,Maharashtra,Mumbai,"Kandivali East, Mumbai - MPCB","03-04-2025 20:00:00",19.205800,72.868200,NH3,3,7,4
India,Maharashtra,Mumbai,"Kandivali West, Mumbai - BMC","03-04-2025 20:00:00",19.215859,72.831718,PM10,49,107,81
India,Maharashtra,Mumbai,"Kandivali West, Mumbai - BMC","03-04-2025 20:00:00",19.215859,72.831718,NO2,12,102,45
India,Maharashtra,Mumbai,"Kandivali West, Mumbai - BMC","03-04-2025 20:00:00",19.215859,72.831718,CO,4,65,7
India,Maharashtra,Mumbai,"Vile Parle West, Mumbai - MPCB","03-04-2025 20:00:00",19.10861,72.83622,PM2.5,NA,NA,NA
India,Maharashtra,Mumbai,"Vile Parle West, Mumbai - MPCB","03-04-2025 20:00:00",19.10861,72.83622,PM10,NA,NA,NA
India,Maharashtra,Mumbai,"Worli, Mumbai - MPCB","03-04-2025 20:00:00",18.9936162,72.8128113,PM2.5,64,74,69
India,Maharashtra,Mumbai,"Worli, Mumbai - MPCB","03-04-2025 20:00:00",18.9936162,72.8128113,OZONE,25,34,30
India,Maharashtra,Nagpur,"Ambazari, Nagpur - MPCB","03-04-2025 20:00:00",21.121801,79.04952,NO2,37,102,60
India,Maharashtra,Nagpur,"Ambazari, Nagpur - MPCB","03-04-2025 20:00:00",21.121801,79.04952,CO,24,102,50
India,Maharashtra,Nagpur,"Ambazari, Nagpur - MPCB","03-04-2025 20:00:00",21.121801,79.04952,OZONE,3,47,22
India,Maharashtra,Mumbai,"Mazgaon, Mumbai - IITM","03-04-2025 20:00:00",18.96702,72.84214,PM10,75,119,99
India,Maharashtra,Mumbai,"Mazgaon, Mumbai - IITM","03-04-2025 20:00:00",18.96702,72.84214,CO,12,66,40
India,Maharashtra,Mumbai,"Mazgaon, Mumbai - IITM","03-04-2025 20:00:00",18.96702,72.84214,OZONE,3,84,36
India,Maharashtra,Mumbai,"Mindspace-Malad West, Mumbai - MPCB","03-04-2025 20:00:00",19.1878657,72.8304069,NH3,1,3,2
India,Maharashtra,Mumbai,"Navy Nagar-Colaba, Mumbai - IITM","03-04-2025 20:00:00",18.897756,72.813320,NO2,14,65,34
India,Maharashtra,Mumbai,"Navy Nagar-Colaba, Mumbai - IITM","03-04-2025 20:00:00",18.897756,72.813320,CO,6,50,20
India,Maharashtra,Nashik,"Gangapur Road, Nashik - MPCB","03-04-2025 20:00:00",20.0073285,73.7762427,SO2,2,14,6
India,Maharashtra,Nashik,"Gangapur Road, Nashik - MPCB","03-04-2025 20:00:00",20.0073285,73.7762427,CO,30,36,32
India,Maharashtra,Nashik,"Gangapur Road, Nashik - MPCB","03-04-2025 20:00:00",20.0073285,73.7762427,OZONE,25,90,71
India,Maharashtra,Nashik,"Hirawadi, Nashik - MPCB","03-04-2025 20:00:00",20.021503,73.813844,PM2.5,92,232,133
India,Maharashtra,Mumbai,"Kherwadi_Bandra East, Mumbai - MPCB","03-04-2025 20:00:00",19.0632143,72.8456324,PM2.5,28,95,59
India,Maharashtra,Mumbai,"Kherwadi_Bandra East, Mumbai - MPCB","03-04-2025 20:00:00",19.0632143,72.8456324,PM10,49,120,82
India,Maharashtra,Mumbai,"Kurla, Mumbai - MPCB","03-04-2025 20:00:00",19.0863,72.8888,OZONE,27,29,28
India,Maharashtra,Mumbai,"Powai, Mumbai - MPCB","03-04-2025 20:00:00",19.137500,72.915056,SO2,23,26,25
India,Maharashtra,Mumbai,"Powai, Mumbai - MPCB","03-04-2025 20:00:00",19.137500,72.915056,OZONE,9,9,9
India,Maharashtra,Mumbai,"Sewri, Mumbai - BMC","03-04-2025 20:00:00",19.000084,72.856730,OZONE,7,38,22
India,Maharashtra,Mumbai,"Siddharth Nagar-Worli, Mumbai - IITM","03-04-2025 20:00:00",19.000083,72.813993,PM2.5,17,99,61
India,Maharashtra,Mumbai,"Siddharth Nagar-Worli, Mumbai - IITM","03-04-2025 20:00:00",19.000083,72.813993,PM10,77,114,98
India,Maharashtra,Mumbai,"Siddharth Nagar-Worli, Mumbai - IITM","03-04-2025 20:00:00",19.000083,72.813993,CO,2,54,42
India,Maharashtra,Mumbai,"Vasai West, Mumbai - MPCB","03-04-2025 20:00:00",19.383200,72.820400,CO,50,84,52
India,Maharashtra,Nashik,"MIDC Ambad, Nashik - MPCB","03-04-2025 20:00:00",19.950220,73.731480,OZONE,5,110,77
India,Maharashtra,"Navi Mumbai","Kopripada-Vashi, Navi Mumbai - MPCB","03-04-2025 20:00:00",19.090337,73.014232,SO2,NA,NA,NA
India,Maharashtra,"Navi Mumbai","Mahape, Navi Mumbai - MPCB","03-04-2025 20:00:00",19.1135051,73.008978,NO2,84,86,85
India,Maharashtra,"Navi Mumbai","Sanpada, Navi Mumbai - MPCB","03-04-2025 20:00:00",19.0575752,73.0151367,PM10,71,146,105
India,Maharashtra,"Navi Mumbai","Sanpada, Navi Mumbai - MPCB","03-04-2025 20:00:00",19.0575752,73.0151367,NH3,6,14,8
India,Maharashtra,Pimpri-Chinchwad,"Gavalinagar, Pimpri Chinchwad - MPCB","03-04-2025 20:00:00",18.63673,73.82487,CO,20,62,31
India,Maharashtra,Pimpri-Chinchwad,"Park Street Wakad, Pimpri Chinchwad - MPCB","03-04-2025 20:00:00",18.59051,73.77946,PM2.5,46,82,65
India,Maharashtra,Pimpri-Chinchwad,"Park Street Wakad, Pimpri Chinchwad - MPCB","03-04-2025 20:00:00",18.59051,73.77946,NO2,50,144,90
India,Maharashtra,Pimpri-Chinchwad,"Park Street Wakad, Pimpri Chinchwad - MPCB","03-04-2025 20:00:00",18.59051,73.77946,CO,28,66,30
India,Maharashtra,Pune,"Transport Nagar-Nigdi, Pune - IITM","03-04-2025 20:00:00",18.664282,73.763966,PM2.5,60,104,74
India,Maharashtra,Pune,"Transport Nagar-Nigdi, Pune - IITM","03-04-2025 20:00:00",18.664282,73.763966,PM10,83,112,95
India,Maharashtra,Sangli,"Vijay Nagar, Sangli - MPCB","03-04-2025 20:00:00"," 16.5038",74.3623,NO2,7,42,16
India,Maharashtra,Pune,"Katraj Dairy, Pune - MPCB","03-04-2025 20:00:00",18.454450,73.854155,PM10,164,169,166
India,Maharashtra,Pune,"Katraj Dairy, Pune - MPCB","03-04-2025 20:00:00",18.454450,73.854155,NH3,11,11,11
India,Maharashtra,Pune,"Mhada Colony, Pune - IITM","03-04-2025 20:00:00",18.573040,73.927715,NO2,31,55,42
India,Maharashtra,"Navi Mumbai","Tondare-Taloja, Navi Mumbai - MPCB","03-04-2025 20:00:00",19.0630,73.1209,SO2,1,2,1
India,Maharashtra,Parbhani,"Masoom Colony, Parbhani - MPCB","03-04-2025 20:00:00",19.265594,76.761463,PM2.5,NA,NA,NA
India,Maharashtra,Pune,"Panchawati_Pashan, Pune - IITM","03-04-2025 20:00:00",18.536457,73.805454,PM2.5,43,100,67
India,Maharashtra,Pune,"Revenue Colony-Shivajinagar, Pune - IITM","03-04-2025 20:00:00",18.530085,73.849598,SO2,1,37,10
India,Maharashtra,Pune,"Bhumkar Nagar, Pune - IITM","03-04-2025 20:00:00",18.605770,73.749976,CO,72,108,84
India,Maharashtra,Pune,"Bhumkar Nagar, Pune - IITM","03-04-2025 20:00:00",18.605770,73.749976,OZONE,1,180,74
India,Maharashtra,"Navi Mumbai","Tondare-Taloja, Navi Mumbai - MPCB","03-04-2025 20:00:00",19.0630,73.1209,PM2.5,52,141,90
India,Maharashtra,Pune,"Bhosari, Pune - IITM","03-04-2025 20:00:00",18.640051,73.848956,PM2.5,45,131,82
India,Odisha,Rairangpur,"Divisional Forest Office, Rairangpur - OSPCB","03-04-2025 20:00:00",22.265816,86.174829,PM2.5,76,153,92
India,Odisha,Rourkela,"Raghunathpali, Rourkela - OSPCB","03-04-2025 20:00:00",22.220833,84.809444,PM10,111,148,129
India,Odisha,Rourkela,"Raghunathpali, Rourkela - OSPCB","03-04-2025 20:00:00",22.220833,84.809444,NH3,2,2,2
India,Odisha,Rourkela,"Raghunathpali, Rourkela - OSPCB","03-04-2025 20:00:00",22.220833,84.809444,CO,60,78,64
India,Odisha,Rourkela,"Raghunathpali, Rourkela - OSPCB","03-04-2025 20:00:00",22.220833,84.809444,OZONE,8,121,98
India,Odisha,Talcher,"Talcher Coalfields,Talcher - OSPCB","03-04-2025 20:00:00",20.9360711,85.1707021,NO2,23,38,31
India,Odisha,Talcher,"Talcher Coalfields,Talcher - OSPCB","03-04-2025 20:00:00",20.9360711,85.1707021,CO,38,113,49
India,Odisha,Tensa,"Barsua Iron Ore Mines, Tensa - OSPCB","03-04-2025 20:00:00",21.869985,85.167016,PM2.5,NA,NA,NA
India,Odisha,Tensa,"Barsua Iron Ore Mines, Tensa - OSPCB","03-04-2025 20:00:00",21.869985,85.167016,NH3,2,15,8
India,Odisha,Brajrajnagar,"GM Office, Brajrajnagar - OSPCB","03-04-2025 20:00:00",21.8004996,83.8396977,CO,42,62,49
India,Odisha,Byasanagar,"Ferro Chrome Colony, Byasanagar - OSPCB","03-04-2025 20:00:00",20.94185,86.11510,NH3,1,3,2
India,Odisha,Cuttack,"CDA Area, Cuttack - OSPCB","03-04-2025 20:00:00","20.48891     ","85.84768     ",SO2,3,5,4
India,Odisha,Keonjhar,"Jagamohanpur, Keonjhar - OSPCB","03-04-2025 20:00:00",21.643900,85.599355,CO,14,32,18
India,Odisha,Keonjhar,"Jagamohanpur, Keonjhar - OSPCB","03-04-2025 20:00:00",21.643900,85.599355,OZONE,10,70,51
India,Odisha,Nayagarh,"Dabuna, Nayagarh - OSPCB","03-04-2025 20:00:00",21.847279,85.416905,NO2,2,25,8
India,Odisha,Nayagarh,"Dabuna, Nayagarh - OSPCB","03-04-2025 20:00:00",21.847279,85.416905,NH3,5,10,7
India,Meghalaya,Shillong,"Lumpyngngad, Shillong - Meghalaya PCB","03-04-2025 20:00:00",25.5586,91.8985,NO2,NA,NA,NA
India,Mizoram,Aizawl,"Sikulpuikawn, Aizawl - Mizoram PCB","03-04-2025 20:00:00",23.7176342,92.7192841,NH3,1,2,1
India,Mizoram,Aizawl,"Sikulpuikawn, Aizawl - Mizoram PCB","03-04-2025 20:00:00",23.7176342,92.7192841,CO,3,3,3
India,Nagaland,Kohima,"PWD Juction, Kohima - NPCB","03-04-2025 20:00:00",25.6635413,94.0989878,NH3,1,1,1
India,Nagaland,Kohima,"PWD Juction, Kohima - NPCB","03-04-2025 20:00:00",25.6635413,94.0989878,OZONE,7,44,23
India,Odisha,Angul,"Hakimapada, Angul - OSPCB","03-04-2025 20:00:00",20.832874,85.104082,SO2,9,122,72
India,Maharashtra,Thane,"Upvan Fort, Thane - MPCB","03-04-2025 20:00:00",19.222279,72.957979,PM10,61,101,78
India,Maharashtra,Ulhasnagar,"Sidhi Vinayak Nagar, Ulhasnagar - MPCB","03-04-2025 20:00:00",19.235581,73.159121,NH3,2,6,4
India,Maharashtra,Virar,"Bolinj, Virar - MPCB","03-04-2025 20:00:00",19.4458210,72.7988231,PM2.5,35,98,68
India,Maharashtra,Virar,"Bolinj, Virar - MPCB","03-04-2025 20:00:00",19.4458210,72.7988231,NH3,1,3,2
India,Maharashtra,Virar,"Bolinj, Virar - MPCB","03-04-2025 20:00:00",19.4458210,72.7988231,CO,21,102,33
India,Odisha,Barbil,"Forest Office, Barbil - OSPCB","03-04-2025 20:00:00",22.1166054,85.3945546,CO,2,28,10
India,Odisha,Bhubaneswar,"Lingraj Mandir, Bhubaneswar - OSPCB","03-04-2025 20:00:00",20.240790,85.836784,PM2.5,20,97,42
India,Odisha,Bhubaneswar,"Lingraj Mandir, Bhubaneswar - OSPCB","03-04-2025 20:00:00",20.240790,85.836784,NO2,7,15,10
India,Manipur,Imphal,"DM College of Science, Imphal - Manipur PCB","03-04-2025 20:00:00",24.8207389,93.9423085,PM2.5,NA,NA,NA
India,Manipur,Imphal,"DM College of Science, Imphal - Manipur PCB","03-04-2025 20:00:00",24.8207389,93.9423085,PM10,NA,NA,NA
India,Manipur,Imphal,"DM College of Science, Imphal - Manipur PCB","03-04-2025 20:00:00",24.8207389,93.9423085,SO2,NA,NA,NA
India,Maharashtra,Solapur,"Dnyaneshwar Nagar, Solapur - MPCB","03-04-2025 20:00:00",17.6336264,75.9132495,PM2.5,42,69,52
India,Odisha,Bileipada,"Tata Township, Bileipada - OSPCB","03-04-2025 20:00:00",22.06156703,85.47409613,SO2,4,7,5
India,Maharashtra,Thane,"Kasarvadavali, Thane - MPCB","03-04-2025 20:00:00",19.26777,72.97182,SO2,1,13,3
India,Odisha,Tensa,"Barsua Iron Ore Mines, Tensa - OSPCB","03-04-2025 20:00:00",21.869985,85.167016,OZONE,18,36,30
India,Puducherry,Puducherry,"Jawahar Nagar, Puducherry - PPCC","03-04-2025 20:00:00",11.9309,79.8027,NO2,1,34,13
India,Punjab,Amritsar,"Golden Temple, Amritsar - PPCB","03-04-2025 20:00:00",31.620000,74.876512,PM2.5,39,79,61
India,Punjab,Amritsar,"Golden Temple, Amritsar - PPCB","03-04-2025 20:00:00",31.620000,74.876512,SO2,2,113,56
India,Punjab,Amritsar,"Golden Temple, Amritsar - PPCB","03-04-2025 20:00:00",31.620000,74.876512,CO,10,122,36
India,Punjab,Jalandhar,"Civil Line, Jalandhar - PPCB","03-04-2025 20:00:00",31.321907,75.578914,OZONE,24,78,66
India,Rajasthan,Barmer,"Railway Colony, Barmer - RSPCB","03-04-2025 20:00:00",25.747299,71.393989,OZONE,5,87,78
India,Rajasthan,Bharatpur,"Krishna Nagar, Bharatpur - RSPCB","03-04-2025 20:00:00",27.215415,77.50873,PM10,48,280,130
India,Rajasthan,Bhilwara,"Pratap Nagar, Bhilwara - RSPCB","03-04-2025 20:00:00",25.339605,74.618883,NO2,9,135,27
India,Rajasthan,Bhilwara,"Pratap Nagar, Bhilwara - RSPCB","03-04-2025 20:00:00",25.339605,74.618883,OZONE,5,137,97
India,Rajasthan,Bhiwadi,"RIICO Ind. Area III, Bhiwadi - RSPCB","03-04-2025 20:00:00",28.194909,76.862296,PM2.5,52,252,138
India,Rajasthan,Alwar,"Moti Doongri, Alwar - RSPCB","03-04-2025 20:00:00",27.554793,76.611536,NH3,13,30,21
India,Rajasthan,Banswara,"Rati Talai, Banswara - RSPCB","03-04-2025 20:00:00",23.555190,74.440010,NO2,14,152,42
India,Rajasthan,Baran,"Bamboliya, Baran - RSPCB","03-04-2025 20:00:00",25.106006,76.469948,PM2.5,12,83,47
India,Rajasthan,Baran,"Bamboliya, Baran - RSPCB","03-04-2025 20:00:00",25.106006,76.469948,OZONE,48,189,160
India,Rajasthan,Barmer,"Railway Colony, Barmer - RSPCB","03-04-2025 20:00:00",25.747299,71.393989,NO2,5,141,30
India,Punjab,Khanna,"Kalal Majra, Khanna - PPCB","03-04-2025 20:00:00","30.736056 ",76.209694,CO,57,78,65
India,Punjab,"Mandi Gobindgarh","RIMT University, Mandi Gobindgarh - PPCB","03-04-2025 20:00:00",30.649961,76.331442,PM2.5,66,168,91
India,Punjab,"Mandi Gobindgarh","RIMT University, Mandi Gobindgarh - PPCB","03-04-2025 20:00:00",30.649961,76.331442,NO2,25,28,26
India,Punjab,Patiala,"Model Town, Patiala - PPCB","03-04-2025 20:00:00",30.349388,76.366642,PM2.5,56,176,88
India,Punjab,Patiala,"Model Town, Patiala - PPCB","03-04-2025 20:00:00",30.349388,76.366642,CO,22,56,41
India,Rajasthan,Bhiwadi,"Vasundhara Nagar_UIT, Bhiwadi - RSPCB","03-04-2025 20:00:00",28.207266,76.829265,NO2,16,103,58
India,Rajasthan,Bhiwadi,"Vasundhara Nagar_UIT, Bhiwadi - RSPCB","03-04-2025 20:00:00",28.207266,76.829265,CO,16,88,28
India,Rajasthan,Bikaner,"MM Ground, Bikaner - RSPCB","03-04-2025 20:00:00",28.018792,73.292658,PM10,72,408,148
India,Rajasthan,Bikaner,"MM Ground, Bikaner - RSPCB","03-04-2025 20:00:00",28.018792,73.292658,NO2,9,125,46
India,Rajasthan,Hanumangarh,"Housing Board, Hanumangarh - RSPCB","03-04-2025 20:00:00",29.610750,74.283608,OZONE,26,84,74
India,Rajasthan,Jaipur,"Adarsh Nagar, Jaipur - RSPCB","03-04-2025 20:00:00",26.902909,75.836858,OZONE,9,67,55
India,Rajasthan,Jaipur,"Mansarovar Sector-12, Jaipur - RSPCB","03-04-2025 20:00:00",26.843698,75.766894,NO2,7,137,39
India,Rajasthan,Bundi,"New Colony, Bundi - RSPCB","03-04-2025 20:00:00",25.435774,75.644272,PM10,NA,NA,NA
India,Rajasthan,Bundi,"New Colony, Bundi - RSPCB","03-04-2025 20:00:00",25.435774,75.644272,CO,14,45,32
India,Rajasthan,Churu,"Subash Chowk, Churu - RSPCB","03-04-2025 20:00:00",28.296139,74.961696,PM2.5,40,119,70
India,Rajasthan,Churu,"Subash Chowk, Churu - RSPCB","03-04-2025 20:00:00",28.296139,74.961696,NH3,5,7,6
India,Rajasthan,Dausa,"Khatikan Mohalla, Dausa - RSPCB","03-04-2025 20:00:00",26.895552,76.334753,PM10,102,311,142
India,Rajasthan,Dausa,"Khatikan Mohalla, Dausa - RSPCB","03-04-2025 20:00:00",26.895552,76.334753,NH3,5,8,7
India,Rajasthan,Dholpur,"Raja Ganj, Dholpur - RSPCB","03-04-2025 20:00:00",26.699557,77.898881,PM2.5,NA,NA,NA
India,Rajasthan,Dholpur,"Raja Ganj, Dholpur - RSPCB","03-04-2025 20:00:00",26.699557,77.898881,CO,34,69,42
India,Rajasthan,Dungarpur,"Bhoiwada, Dungarpur - RSPCB","03-04-2025 20:00:00",23.837789,73.714926,PM10,65,161,105
India,Rajasthan,Rajsamand,"Dhoinda, Rajsamand - RSPCB","03-04-2025 20:00:00",25.036360,73.883502,CO,12,78,24
India,Rajasthan,"Sawai Madhopur","Sahu Nagar, Sawai Madhopur - RSPCB","03-04-2025 20:00:00",26.031443,76.359327,NO2,9,22,15
India,Rajasthan,Sikar,"Radhakishan Pura, Sikar - RSPCB","03-04-2025 20:00:00",27.608912,75.153302,PM10,66,474,160
India,Rajasthan,Sikar,"Radhakishan Pura, Sikar - RSPCB","03-04-2025 20:00:00",27.608912,75.153302,NO2,7,101,26
India,Rajasthan,Sikar,"Radhakishan Pura, Sikar - RSPCB","03-04-2025 20:00:00",27.608912,75.153302,NH3,5,13,7
India,Rajasthan,Sikar,"Radhakishan Pura, Sikar - RSPCB","03-04-2025 20:00:00",27.608912,75.153302,OZONE,5,103,88
India,Rajasthan,Sirohi,"Vedhaynath Colony, Sirohi - RSPCB","03-04-2025 20:00:00",24.885261,72.857549,CO,8,53,17
India,Rajasthan,Sirohi,"Vedhaynath Colony, Sirohi - RSPCB","03-04-2025 20:00:00",24.885261,72.857549,OZONE,29,63,56
India,Rajasthan,"Sri Ganganagar","Old City, Sri Ganganagar - RSPCB","03-04-2025 20:00:00",29.931624,73.864511,OZONE,9,128,96
India,Rajasthan,Jaipur,"Police Commissionerate, Jaipur - RSPCB","03-04-2025 20:00:00",26.9164092,75.7994901,CO,10,122,45
India,Rajasthan,Jaipur,"Sector-2 Murlipura, Jaipur - RSPCB","03-04-2025 20:00:00",26.960669,75.771817,PM10,49,500,107
India,Rajasthan,Jaipur,"Sector-2 Murlipura, Jaipur - RSPCB","03-04-2025 20:00:00",26.960669,75.771817,NO2,11,165,51
India,Rajasthan,Jaipur,"Shastri Nagar, Jaipur - RSPCB","03-04-2025 20:00:00",26.9502929,75.730943,PM2.5,42,264,97
India,Rajasthan,Jaipur,"Shastri Nagar, Jaipur - RSPCB","03-04-2025 20:00:00",26.9502929,75.730943,OZONE,13,63,55
India,Rajasthan,Jaisalmer,"Sadar Bazar, Jaisalmer - RSPCB","03-04-2025 20:00:00",26.912329,70.909168,PM2.5,12,100,42
India,Rajasthan,Jodhpur,"Jhalamand, Jodhpur - RSPCB","03-04-2025 20:00:00",26.215415,73.070156,CO,6,70,19
India,Rajasthan,Jodhpur,"Mandor, Jodhpur - RSPCB","03-04-2025 20:00:00",26.358805,73.047444,PM10,45,190,91
India,Rajasthan,Jodhpur,"Mandor, Jodhpur - RSPCB","03-04-2025 20:00:00",26.358805,73.047444,NO2,18,78,43
India,Rajasthan,Karauli,"Satyawati Vihar, Karauli - RSPCB","03-04-2025 20:00:00",26.506177,77.025989,CO,16,47,30
India,Rajasthan,Kota,"Dhanmandi, Kota - RSPCB","03-04-2025 20:00:00",25.164090,75.858137,OZONE,14,111,90
India,Rajasthan,Pali,"Indira Colony Vistar, Pali - RSPCB","03-04-2025 20:00:00",25.771061," 73.340227",NO2,11,64,30
India,Rajasthan,Pratapgarh,"Pragati Nagar, Pratapgarh - RSPCB","03-04-2025 20:00:00",24.041198,74.780702,PM2.5,47,208,86
India,Rajasthan,Pratapgarh,"Pragati Nagar, Pratapgarh - RSPCB","03-04-2025 20:00:00",24.041198,74.780702,PM10,74,410,161
India,Rajasthan,Pratapgarh,"Pragati Nagar, Pratapgarh - RSPCB","03-04-2025 20:00:00",24.041198,74.780702,SO2,4,14,7
India,Rajasthan,Rajsamand,"Dhoinda, Rajsamand - RSPCB","03-04-2025 20:00:00",25.036360,73.883502,NO2,7,80,26
India,Rajasthan,Tonk,"Shastri Nagar, Tonk - RSPCB","03-04-2025 20:00:00",26.159933,75.780517,NO2,15,64,29
India,TamilNadu,Ariyalur,"Keelapalur, Ariyalur - TNPCB","03-04-2025 20:00:00",11.06825,79.07033,NH3,1,1,1
India,TamilNadu,Ariyalur,"Keelapalur, Ariyalur - TNPCB","03-04-2025 20:00:00",11.06825,79.07033,OZONE,3,7,6
India,TamilNadu,Chengalpattu,"Crescent University, Chengalpattu - TNPCB","03-04-2025 20:00:00",12.8777316,80.0834807,PM2.5,39,60,50
India,Rajasthan,Jhunjhunu,"Indra Nagar, Jhunjhunu - RSPCB","03-04-2025 20:00:00",28.108988,75.386577,OZONE,35,130,89
India,Rajasthan,Jodhpur,"Jhalamand, Jodhpur - RSPCB","03-04-2025 20:00:00",26.215415,73.070156,PM10,29,486,161
India,Rajasthan,Nagaur,"Karni Colony, Nagaur - RSPCB","03-04-2025 20:00:00",27.213494,73.734444,NO2,9,44,19
India,Rajasthan,Nagaur,"Karni Colony, Nagaur - RSPCB","03-04-2025 20:00:00",27.213494,73.734444,NH3,5,10,7
India,Rajasthan,Nagaur,"Karni Colony, Nagaur - RSPCB","03-04-2025 20:00:00",27.213494,73.734444,SO2,4,15,8
India,Rajasthan,Kota,"Shrinath Puram, Kota - RSPCB","03-04-2025 20:00:00",25.14389,75.821256,NO2,NA,NA,NA
India,Rajasthan,Kota,"Shrinath Puram, Kota - RSPCB","03-04-2025 20:00:00",25.14389,75.821256,OZONE,29,62,53
India,Rajasthan,Jaipur,"Mansarovar Sector-12, Jaipur - RSPCB","03-04-2025 20:00:00",26.843698,75.766894,CO,20,115,29
India,TamilNadu,Chennai,"Perungudi, Chennai - TNPCB","03-04-2025 20:00:00",12.9533,80.2357,SO2,2,7,5
India,TamilNadu,Chennai,"Royapuram, Chennai - TNPCB","03-04-2025 20:00:00",13.1036,80.2909,SO2,7,15,9
India,TamilNadu,Chennai,"Velachery Res. Area, Chennai - CPCB","03-04-2025 20:00:00",13.0052189,80.2398125,NH3,4,5,4
India,TamilNadu,Coimbatore,"PSG College of Arts and Science, Coimbatore - TNPCB","03-04-2025 20:00:00",11.0328,77.0349,PM10,17,72,45
India,TamilNadu,Coimbatore,"PSG College of Arts and Science, Coimbatore - TNPCB","03-04-2025 20:00:00",11.0328,77.0349,NH3,2,2,2
India,TamilNadu,Madurai,"Uchapatti, Madurai - TNPCB","03-04-2025 20:00:00",9.865935,78.022669,CO,21,28,23
India,TamilNadu,Nagapattinam,"Velippalayam, Nagapattinam - TNPCB","03-04-2025 20:00:00",10.798548,79.838212,PM2.5,8,80,22
India,TamilNadu,Namakkal,"Ponnusamy Nagar, Namakkal - TNPCB","03-04-2025 20:00:00",11.273992,78.163545,PM10,12,62,32
India,TamilNadu,Namakkal,"Ponnusamy Nagar, Namakkal - TNPCB","03-04-2025 20:00:00",11.273992,78.163545,NH3,2,2,2
India,TamilNadu,Namakkal,"Ponnusamy Nagar, Namakkal - TNPCB","03-04-2025 20:00:00",11.273992,78.163545,OZONE,9,11,10
India,TamilNadu,Chennai,"Alandur Bus Depot, Chennai - CPCB","03-04-2025 20:00:00",12.9099161,80.1076538,NH3,NA,NA,NA
India,TamilNadu,Chennai,"Alandur Bus Depot, Chennai - CPCB","03-04-2025 20:00:00",12.9099161,80.1076538,CO,20,38,28
India,TamilNadu,Chennai,"Kodungaiyur, Chennai - TNPCB","03-04-2025 20:00:00",13.1278,80.2642,NH3,4,5,4
India,TamilNadu,Chennai,"Kodungaiyur, Chennai - TNPCB","03-04-2025 20:00:00",13.1278,80.2642,OZONE,9,23,15
India,TamilNadu,Cuddalore,"Kudikadu, Cuddalore - TNPCB","03-04-2025 20:00:00",11.6829898,79.7532099,PM10,8,51,22
India,TamilNadu,Cuddalore,"Kudikadu, Cuddalore - TNPCB","03-04-2025 20:00:00",11.6829898,79.7532099,NH3,6,6,6
India,TamilNadu,Cuddalore,"Kudikadu, Cuddalore - TNPCB","03-04-2025 20:00:00",11.6829898,79.7532099,SO2,10,11,10
India,TamilNadu,Cuddalore,"Semmandalam, Cuddalore - TNPCB","03-04-2025 20:00:00",11.7637683,79.7499835,OZONE,1,2,2
India,TamilNadu,Hosur,"SIPCOT Phase-1, Hosur - TNPCB","03-04-2025 20:00:00",12.746998,77.813811,CO,15,36,23
India,TamilNadu,Kanchipuram,"Kilambi, Kanchipuram - TNPCB","03-04-2025 20:00:00",12.864618,79.659968,PM2.5,13,80,48
India,TamilNadu,Kanchipuram,"Kilambi, Kanchipuram - TNPCB","03-04-2025 20:00:00",12.864618,79.659968,PM10,23,116,69
India,TamilNadu,Ooty,"Bombay Castel, Ooty - TNPCB","03-04-2025 20:00:00",11.4068288,76.7138973,PM2.5,30,82,48
India,TamilNadu,Palkalaiperur,"Bharathidasan University, Palkalaiperur - TNPCB","03-04-2025 20:00:00",10.681158,78.741746,NO2,10,10,10
India,TamilNadu,Chennai,"Manali Village, Chennai - TNPCB","03-04-2025 20:00:00",13.1662,80.2584,OZONE,30,56,32
India,TamilNadu,Chennai,"Manali, Chennai - CPCB","03-04-2025 20:00:00",13.164544,80.26285,NH3,6,7,7
India,TamilNadu,Dindigul,"Mendonsa Colony, Dindigul - TNPCB","03-04-2025 20:00:00",10.358535,77.984321,CO,16,23,19
India,TamilNadu,Hosur,"SIPCOT Phase-1, Hosur - TNPCB","03-04-2025 20:00:00",12.746998,77.813811,PM10,84,141,102
India,TamilNadu,Thoothukudi,"Meelavittan, Thoothukudi - TNPCB","03-04-2025 20:00:00","8.816428 ",78.099039,SO2,8,20,13
India,TamilNadu,Tiruchirappalli,"St Joseph College, Tiruchirappalli - TNPCB","03-04-2025 20:00:00",10.830158,78.691849,PM2.5,NA,NA,NA
India,TamilNadu,Tiruchirappalli,"St Joseph College, Tiruchirappalli - TNPCB","03-04-2025 20:00:00",10.830158,78.691849,PM10,NA,NA,NA
India,TamilNadu,Tirupur,"Kumaran College, Tirupur - TNPCB","03-04-2025 20:00:00",11.0973603,77.3228673,CO,55,73,60
India,TamilNadu,Vellore,"Vasanthapuram, Vellore - TNPCB","03-04-2025 20:00:00",12.909494,79.131861,NO2,2,57,12
India,TamilNadu,Vellore,"Vasanthapuram, Vellore - TNPCB","03-04-2025 20:00:00",12.909494,79.131861,SO2,14,101,20
India,TamilNadu,Virudhunagar,"Collectorate Office, Virudhunagar - TNPCB","03-04-2025 20:00:00",9.559382,77.948828,NO2,19,19,19
India,TamilNadu,Virudhunagar,"Collectorate Office, Virudhunagar - TNPCB","03-04-2025 20:00:00",9.559382,77.948828,NH3,7,7,7
India,TamilNadu,Virudhunagar,"Collectorate Office, Virudhunagar - TNPCB","03-04-2025 20:00:00",9.559382,77.948828,OZONE,2,3,3
India,Telangana,Hyderabad,"Kompally Municipal Office, Hyderabad - TSPCB","03-04-2025 20:00:00",17.544899,78.486949,CO,22,24,22
India,Telangana,Hyderabad,"Nacharam_TSIIC IALA, Hyderabad - TSPCB","03-04-2025 20:00:00",17.429398,78.569354,PM2.5,34,49,41
India,Telangana,Hyderabad,"Nacharam_TSIIC IALA, Hyderabad - TSPCB","03-04-2025 20:00:00",17.429398,78.569354,NO2,10,17,12
India,Telangana,Hyderabad,"Nacharam_TSIIC IALA, Hyderabad - TSPCB","03-04-2025 20:00:00",17.429398,78.569354,OZONE,16,49,33
India,Telangana,Hyderabad,"New Malakpet, Hyderabad - TSPCB","03-04-2025 20:00:00",17.37206,78.50864,PM10,46,93,66
India,Telangana,Hyderabad,"New Malakpet, Hyderabad - TSPCB","03-04-2025 20:00:00",17.37206,78.50864,NO2,18,19,18
India,Telangana,Hyderabad,"Ramachandrapuram, Hyderabad - TSPCB","03-04-2025 20:00:00",17.528544,78.286195,OZONE,50,50,50
India,Telangana,Hyderabad,"Sanathnagar, Hyderabad - TSPCB","03-04-2025 20:00:00",17.4559458,78.4332152,NO2,17,30,26
India,Telangana,Hyderabad,"Somajiguda, Hyderabad - TSPCB","03-04-2025 20:00:00",17.417094,78.457437,PM2.5,51,93,66
India,Telangana,Hyderabad,"Central University, Hyderabad - TSPCB","03-04-2025 20:00:00",17.460103,78.334361,PM10,38,112,51
India,Telangana,Hyderabad,"Central University, Hyderabad - TSPCB","03-04-2025 20:00:00",17.460103,78.334361,CO,26,36,28
India,Telangana,Hyderabad,"Central University, Hyderabad - TSPCB","03-04-2025 20:00:00",17.460103,78.334361,OZONE,11,17,14
India,Telangana,Hyderabad,"ECIL Kapra, Hyderabad - TSPCB","03-04-2025 20:00:00",17.470431,78.566959,PM2.5,40,79,57
India,Telangana,Hyderabad,"ECIL Kapra, Hyderabad - TSPCB","03-04-2025 20:00:00",17.470431,78.566959,CO,26,50,42
India,Telangana,Hyderabad,"ICRISAT Patancheru, Hyderabad - TSPCB","03-04-2025 20:00:00",17.518400,78.278777,PM2.5,35,83,55
India,Telangana,Hyderabad,"ICRISAT Patancheru, Hyderabad - TSPCB","03-04-2025 20:00:00",17.518400,78.278777,PM10,31,111,66
India,Telangana,Hyderabad,"ICRISAT Patancheru, Hyderabad - TSPCB","03-04-2025 20:00:00",17.518400,78.278777,NH3,1,3,2
India,Telangana,Hyderabad,"IDA Pashamylaram, Hyderabad - TSPCB","03-04-2025 20:00:00",17.5316895,78.218939,PM2.5,40,75,55
India,Uttar_Pradesh,Agra,"Sector-3B Avas Vikas Colony, Agra - UPPCB","03-04-2025 20:00:00",27.19412,77.96237,SO2,14,20,17
India,Uttar_Pradesh,Agra,"Shahjahan Garden, Agra - UPPCB","03-04-2025 20:00:00",27.169338,78.03582,PM2.5,32,192,77
India,Uttar_Pradesh,Baghpat,"Sardar Patel Inter College, Baghpat - UPPCB","03-04-2025 20:00:00",28.964949,77.278761,PM10,77,403,223
India,Uttar_Pradesh,Baghpat,"Sardar Patel Inter College, Baghpat - UPPCB","03-04-2025 20:00:00",28.964949,77.278761,CO,8,119,28
India,Uttar_Pradesh,Bareilly,"Civil Lines, Bareilly - UPPCB","03-04-2025 20:00:00",28.359581,79.414455,NO2,1,3,2
India,Uttar_Pradesh,Bareilly,"Civil Lines, Bareilly - UPPCB","03-04-2025 20:00:00",28.359581,79.414455,NH3,1,2,1
India,Uttar_Pradesh,Bareilly,"Civil Lines, Bareilly - UPPCB","03-04-2025 20:00:00",28.359581,79.414455,SO2,74,89,79
India,Telangana,Hyderabad,"Zoo Park, Hyderabad - TSPCB","03-04-2025 20:00:00",17.349694,78.451437,NH3,3,9,5
India,Tripura,Agartala,"Bardowali, Agartala - Tripura SPCB","03-04-2025 20:00:00",23.8175497,91.2726974,NH3,2,3,2
India,Uttar_Pradesh,Agra,"Manoharpur, Agra - UPPCB","03-04-2025 20:00:00",27.23711,78.01936,NH3,1,2,2
India,Uttar_Pradesh,Agra,"Manoharpur, Agra - UPPCB","03-04-2025 20:00:00",27.23711,78.01936,CO,5,21,8
India,Uttar_Pradesh,Agra,"Sanjay Palace, Agra - UPPCB","03-04-2025 20:00:00",27.19865833,78.00598056,PM10,78,407,157
India,Uttar_Pradesh,Agra,"Sanjay Palace, Agra - UPPCB","03-04-2025 20:00:00",27.19865833,78.00598056,NO2,12,129,49
India,TamilNadu,Perundurai,"SIPCOT Industrial Park, Perundurai - TNPCB","03-04-2025 20:00:00",11.258242,77.552761,OZONE,6,9,8
India,TamilNadu,Pudukottai,"SIPCOT Nathampannai, Pudukottai - TNPCB","03-04-2025 20:00:00",10.423417,78.784889,NH3,2,3,3
India,TamilNadu,Ramanathapuram,"Chalai Bazaar, Ramanathapuram - TNPCB","03-04-2025 20:00:00",9.36399,78.831977,NH3,1,1,1
India,TamilNadu,Ramanathapuram,"Chalai Bazaar, Ramanathapuram - TNPCB","03-04-2025 20:00:00",9.36399,78.831977,OZONE,12,16,15
India,TamilNadu,Salem,"Sona College of Technology, Salem - TNPCB","03-04-2025 20:00:00",11.679111,78.125052,SO2,35,38,37
India,Uttar_Pradesh,Bareilly,"Rajendra Nagar, Bareilly - UPPCB","03-04-2025 20:00:00",28.38910936,79.42963708,NH3,1,2,1
India,Uttar_Pradesh,Bareilly,"Rajendra Nagar, Bareilly - UPPCB","03-04-2025 20:00:00",28.38910936,79.42963708,CO,10,42,24
India,Uttar_Pradesh,Bulandshahr,"Yamunapuram, Bulandshahr - UPPCB","03-04-2025 20:00:00",28.406963,77.849831,CO,14,90,27
India,Uttar_Pradesh,Firozabad,"Nagla Bhau, Firozabad - UPPCB","03-04-2025 20:00:00",27.168897,78.376960,NH3,2,2,2
India,Uttar_Pradesh,Firozabad,"Vibhab Nagar, Firozabad - UPPCB","03-04-2025 20:00:00",27.1594,78.3953,PM2.5,31,265,85
India,Telangana,Hyderabad,"IDA Pashamylaram, Hyderabad - TSPCB","03-04-2025 20:00:00",17.5316895,78.218939,SO2,1,11,5
India,Telangana,Hyderabad,"Kokapet, Hyderabad - TSPCB","03-04-2025 20:00:00",17.393559,78.339194,PM10,68,81,72
India,TamilNadu,Perundurai,"SIPCOT Industrial Park, Perundurai - TNPCB","03-04-2025 20:00:00",11.258242,77.552761,CO,38,47,39
India,Uttar_Pradesh,Lucknow,"Kendriya Vidyalaya, Lucknow - CPCB","03-04-2025 20:00:00",26.906111,80.948222,CO,16,116,53
India,Uttar_Pradesh,Lucknow,"Kukrail Picnic Spot-1, Lucknow - UPPCB","03-04-2025 20:00:00",26.90723,80.98579,NO2,23,24,23
India,Uttar_Pradesh,Lucknow,"Kukrail Picnic Spot-1, Lucknow - UPPCB","03-04-2025 20:00:00",26.90723,80.98579,SO2,34,40,36
India,Uttar_Pradesh,Lucknow,"Lalbagh, Lucknow - CPCB","03-04-2025 20:00:00",26.8458805,80.9365541,NO2,45,102,67
India,Uttar_Pradesh,Lucknow,"Lalbagh, Lucknow - CPCB","03-04-2025 20:00:00",26.8458805,80.9365541,OZONE,12,35,27
India,Uttar_Pradesh,Lucknow,"Talkatora District Industries Center, Lucknow - CPCB","03-04-2025 20:00:00",26.83399722,80.8917361,PM10,132,413,231
India,Uttar_Pradesh,"Greater Noida","Knowledge Park - V, Greater Noida - UPPCB","03-04-2025 20:00:00",28.557054,77.453663,PM2.5,83,465,341
India,Uttar_Pradesh,"Greater Noida","Knowledge Park - V, Greater Noida - UPPCB","03-04-2025 20:00:00",28.557054,77.453663,PM10,69,425,270
India,Uttar_Pradesh,"Greater Noida","Knowledge Park - V, Greater Noida - UPPCB","03-04-2025 20:00:00",28.557054,77.453663,CO,4,108,42
India,Uttar_Pradesh,"Greater Noida","Knowledge Park - V, Greater Noida - UPPCB","03-04-2025 20:00:00",28.557054,77.453663,OZONE,1,160,105
India,Uttar_Pradesh,Hapur,"Anand Vihar, Hapur - UPPCB","03-04-2025 20:00:00",28.725645,77.749675,NH3,8,13,10
India,Uttar_Pradesh,Hapur,"Anand Vihar, Hapur - UPPCB","03-04-2025 20:00:00",28.725645,77.749675,CO,1,108,73
India,Uttar_Pradesh,Meerut,"Ganga Nagar, Meerut - UPPCB","03-04-2025 20:00:00",28.999264,77.7590354,NO2,NA,NA,NA
India,Uttar_Pradesh,Meerut,"Jai Bhim Nagar, Meerut - UPPCB","03-04-2025 20:00:00",28.9535882,77.7622941,PM2.5,12,249,79
India,Uttar_Pradesh,Meerut,"Jai Bhim Nagar, Meerut - UPPCB","03-04-2025 20:00:00",28.9535882,77.7622941,CO,14,94,26
India,Uttar_Pradesh,Meerut,"Pallavpuram Phase 2, Meerut - UPPCB","03-04-2025 20:00:00",29.063510,77.709723,PM10,67,213,147
India,Uttar_Pradesh,Meerut,"Pallavpuram Phase 2, Meerut - UPPCB","03-04-2025 20:00:00",29.063510,77.709723,CO,29,138,78
India,Uttar_Pradesh,Ghaziabad,"Indirapuram, Ghaziabad - UPPCB","03-04-2025 20:00:00",28.646233,77.358075,PM2.5,34,326,199
India,Uttar_Pradesh,Ghaziabad,"Loni, Ghaziabad - UPPCB","03-04-2025 20:00:00",28.757294,77.278792,PM2.5,180,500,381
India,Uttar_Pradesh,Ghaziabad,"Sanjay Nagar, Ghaziabad - UPPCB","03-04-2025 20:00:00",28.685382,77.453839,PM2.5,NA,NA,NA
India,Uttar_Pradesh,Jhansi,"Shivaji Nagar, Jhansi - UPPCB","03-04-2025 20:00:00",25.4547,78.6039,SO2,47,84,59
India,Uttar_Pradesh,Kanpur,"NSI Kalyanpur, Kanpur - UPPCB","03-04-2025 20:00:00",26.509954,80.249612,PM10,53,190,112
India,Uttar_Pradesh,"Greater Noida","Knowledge Park - III, Greater Noida - UPPCB","03-04-2025 20:00:00",28.47272,77.482000,SO2,1,61,17
India,Uttar_Pradesh,Ghaziabad,"Vasundhara, Ghaziabad - UPPCB","03-04-2025 20:00:00",28.6603346,77.3572563,NO2,6,153,78
India,Uttar_Pradesh,Kanpur,"Nehru Nagar, Kanpur - UPPCB","03-04-2025 20:00:00",26.4703136,80.3229863,NO2,41,74,53
India,Uttar_Pradesh,Khurja,"Kalindi Kunj, Khurja - UPPCB","03-04-2025 20:00:00",28.2348927,77.8683002,NH3,1,1,1
India,Uttar_Pradesh,Varanasi,"Maldahiya, Varanasi - UPPCB","03-04-2025 20:00:00",25.32393,82.99687,PM2.5,23,78,47
India,Uttar_Pradesh,Varanasi,"Maldahiya, Varanasi - UPPCB","03-04-2025 20:00:00",25.32393,82.99687,NH3,1,1,1
India,Uttar_Pradesh,Varanasi,"Maldahiya, Varanasi - UPPCB","03-04-2025 20:00:00",25.32393,82.99687,OZONE,1,28,12
India,Uttar_Pradesh,Vrindavan,"Omex Eternity, Vrindavan - UPPCB","03-04-2025 20:00:00",27.5714090,77.6557570,PM10,20,158,71
India,Uttarakhand,Dehradun,"Doon University, Dehradun - UKPCB","03-04-2025 20:00:00",30.269444,78.044167,PM10,22,143,89
India,Uttarakhand,Kashipur,"Govt. Girls Inter College, Kashipur - UKPCB","03-04-2025 20:00:00",29.2124114,78.9611753,PM2.5,64,96,79
India,Uttar_Pradesh,Moradabad,"Buddhi Vihar, Moradabad - UPPCB","03-04-2025 20:00:00",28.83526,78.74460,CO,30,53,36
India,Uttar_Pradesh,Moradabad,"Eco Herbal Park, Moradabad - UPPCB","03-04-2025 20:00:00",28.840739,78.697531,NH3,6,12,9
India,Uttar_Pradesh,Moradabad,"Eco Herbal Park, Moradabad - UPPCB","03-04-2025 20:00:00",28.840739,78.697531,OZONE,6,159,100
India,Uttar_Pradesh,Moradabad,"Employment Office, Moradabad - UPPCB","03-04-2025 20:00:00",28.88528,78.73880,SO2,27,36,30
India,Uttar_Pradesh,Moradabad,"Jigar Colony, Moradabad - UPPCB","03-04-2025 20:00:00",28.856664,78.772638,PM10,59,149,99
India,Uttar_Pradesh,Moradabad,"Jigar Colony, Moradabad - UPPCB","03-04-2025 20:00:00",28.856664,78.772638,NO2,25,25,25
India,Uttar_Pradesh,Prayagraj,"Jhunsi, Prayagraj - UPPCB","03-04-2025 20:00:00",25.425602,81.917152,CO,14,59,29
India,Uttar_Pradesh,Prayagraj,"Jhunsi, Prayagraj - UPPCB","03-04-2025 20:00:00",25.425602,81.917152,OZONE,6,90,53
India,Uttar_Pradesh,Prayagraj,"Motilal Nehru NIT, Prayagraj - UPPCB","03-04-2025 20:00:00",25.494,81.863,PM2.5,36,112,69
India,Uttar_Pradesh,Prayagraj,"Nagar Nigam, Prayagraj - UPPCB","03-04-2025 20:00:00","25.44919916 ","81.82735986 ",NH3,16,18,17
India,Uttar_Pradesh,Prayagraj,"Nagar Nigam, Prayagraj - UPPCB","03-04-2025 20:00:00","25.44919916 ","81.82735986 ",CO,10,48,14
India,Uttar_Pradesh,Prayagraj,"Nagar Nigam, Prayagraj - UPPCB","03-04-2025 20:00:00","25.44919916 ","81.82735986 ",OZONE,11,12,11
India,West_Bengal,Asansol,"Asansol Court Area, Asansol - WBPCB","03-04-2025 20:00:00",23.685297,86.945968,PM10,84,377,135
India,West_Bengal,Asansol,"Evelyn Lodge, Asansol - WBPCB","03-04-2025 20:00:00",23.6979360,86.9443950,PM10,75,257,144
India,West_Bengal,Asansol,"Evelyn Lodge, Asansol - WBPCB","03-04-2025 20:00:00",23.6979360,86.9443950,NO2,11,56,34
India,West_Bengal,Asansol,"Evelyn Lodge, Asansol - WBPCB","03-04-2025 20:00:00",23.6979360,86.9443950,SO2,5,13,8
India,West_Bengal,Asansol,"Mahabir Colliery, Asansol - WBPCB","03-04-2025 20:00:00",23.6181830,87.1057180,PM2.5,32,324,116
India,Uttar_Pradesh,Moradabad,"Transport Nagar, Moradabad - UPPCB","03-04-2025 20:00:00",28.802625,78.753728,NO2,27,28,27
India,Uttar_Pradesh,Moradabad,"Transport Nagar, Moradabad - UPPCB","03-04-2025 20:00:00",28.802625,78.753728,CO,8,94,52
India,Uttar_Pradesh,Muzaffarnagar,"New Mandi, Muzaffarnagar - UPPCB","03-04-2025 20:00:00",29.4723508,77.7194031,PM2.5,60,307,102
India,West_Bengal,Barrackpore,"SVSPA Campus, Barrackpore - WBPCB","03-04-2025 20:00:00",22.7605581,88.3617589,OZONE,6,77,53
India,West_Bengal,Durgapur,"Mahishkapur Road_B-Zone, Durgapur - WBPCB","03-04-2025 20:00:00",23.567923,87.306843,NH3,1,5,2
India,West_Bengal,Durgapur,"Mahishkapur Road_B-Zone, Durgapur - WBPCB","03-04-2025 20:00:00",23.567923,87.306843,SO2,6,95,21
India,Uttar_Pradesh,Noida,"Sector - 62, Noida - IMD","03-04-2025 20:00:00",28.6245479,77.3577104,PM10,NA,NA,NA
India,Uttar_Pradesh,Noida,"Sector-1, Noida - UPPCB","03-04-2025 20:00:00",28.5898,77.3101,PM10,12,110,72
India,West_Bengal,Asansol,"Trivenidevi Bhalotia College, Asansol - WBPCB","03-04-2025 20:00:00",23.616515,87.119133,PM2.5,66,308,137
India,West_Bengal,Asansol,"Trivenidevi Bhalotia College, Asansol - WBPCB","03-04-2025 20:00:00",23.616515,87.119133,PM10,91,265,155
India,West_Bengal,Durgapur,"PCBL Residential Complex, Durgapur - WBPCB","03-04-2025 20:00:00",23.5087640,87.3544400,PM10,69,205,129
India,West_Bengal,Haldia,"Priyambada Housing Estate, Haldia - WBPCB","03-04-2025 20:00:00",22.06047,88.109737,PM2.5,5,43,20
India,West_Bengal,Haldia,"Priyambada Housing Estate, Haldia - WBPCB","03-04-2025 20:00:00",22.06047,88.109737,CO,20,31,23
India,West_Bengal,Haldia,"Priyambada Housing Estate, Haldia - WBPCB","03-04-2025 20:00:00",22.06047,88.109737,OZONE,21,25,23
India,West_Bengal,Howrah,"Botanical Garden, Howrah - WBPCB","03-04-2025 20:00:00",22.554954,88.292568,NH3,2,2,2
India,West_Bengal,Howrah,"Botanical Garden, Howrah - WBPCB","03-04-2025 20:00:00",22.554954,88.292568,SO2,4,8,5
India,West_Bengal,Howrah,"Ghusuri, Howrah - WBPCB","03-04-2025 20:00:00",22.611968,88.347422,PM10,54,106,76
India,West_Bengal,Howrah,"Ghusuri, Howrah - WBPCB","03-04-2025 20:00:00",22.611968,88.347422,NH3,NA,NA,NA
India,West_Bengal,Kolkata,"Bidhannagar, Kolkata - WBPCB","03-04-2025 20:00:00",22.58157048,88.41002457,PM10,31,66,40
India,West_Bengal,Kolkata,"Bidhannagar, Kolkata - WBPCB","03-04-2025 20:00:00",22.58157048,88.41002457,NH3,6,11,7
India,West_Bengal,Kolkata,"Bidhannagar, Kolkata - WBPCB","03-04-2025 20:00:00",22.58157048,88.41002457,SO2,7,12,9
India,West_Bengal,Kolkata,"Jadavpur, Kolkata - WBPCB","03-04-2025 20:00:00",22.49929,88.36917,SO2,5,15,8
India,West_Bengal,Kolkata,"Rabindra Bharati University, Kolkata - WBPCB","03-04-2025 20:00:00",22.627847,88.380669,PM10,42,88,61
India,West_Bengal,Kolkata,"Rabindra Bharati University, Kolkata - WBPCB","03-04-2025 20:00:00",22.627847,88.380669,OZONE,22,70,55
India,West_Bengal,Kolkata,"Rabindra Sarobar, Kolkata - WBPCB","03-04-2025 20:00:00",22.51106,88.35142,CO,17,24,22
India,West_Bengal,Kolkata,"Rabindra Sarobar, Kolkata - WBPCB","03-04-2025 20:00:00",22.51106,88.35142,OZONE,10,83,47
India,West_Bengal,Kolkata,"Victoria, Kolkata - WBPCB","03-04-2025 20:00:00",22.5448082,88.3403691,PM10,53,103,71
India,West_Bengal,Kolkata,"Victoria, Kolkata - WBPCB","03-04-2025 20:00:00",22.5448082,88.3403691,SO2,4,13,8
India,West_Bengal,Kolkata,"Victoria, Kolkata - WBPCB","03-04-2025 20:00:00",22.5448082,88.3403691,OZONE,13,81,53
India,West_Bengal,Siliguri,"Ward-32 Bapupara, Siliguri - WBPCB","03-04-2025 20:00:00",26.6879226,88.4152495,PM2.5,103,304,194
India,West_Bengal,Siliguri,"Ward-32 Bapupara, Siliguri - WBPCB","03-04-2025 20:00:00",26.6879226,88.4152495,NH3,12,19,14
India,West_Bengal,Siliguri,"Ward-32 Bapupara, Siliguri - WBPCB","03-04-2025 20:00:00",26.6879226,88.4152495,SO2,13,29,17
India,West_Bengal,Siliguri,"Ward-32 Bapupara, Siliguri - WBPCB","03-04-2025 20:00:00",26.6879226,88.4152495,CO,42,100,54
India,Andhra_Pradesh,Tirumala,"Toll Gate, Tirumala - APPCB (Formerly known as Tirumala, Tirupati - APPCB)","03-04-2025 20:00:00",13.67,79.35,CO,1,111,40
India,Andhra_Pradesh,Tirumala,"Toll Gate, Tirumala - APPCB (Formerly known as Tirumala, Tirupati - APPCB)","03-04-2025 20:00:00",13.67,79.35,OZONE,11,29,21
India,Andhra_Pradesh,Tirupati,"Vaikuntapuram, Tirupati - APPCB","03-04-2025 20:00:00",13.615387,79.409230,PM2.5,36,191,76
India,Andhra_Pradesh,Tirupati,"Vaikuntapuram, Tirupati - APPCB","03-04-2025 20:00:00",13.615387,79.409230,NO2,10,30,16
India,Andhra_Pradesh,Tirupati,"Vaikuntapuram, Tirupati - APPCB","03-04-2025 20:00:00",13.615387,79.409230,NH3,1,4,2
India,Andhra_Pradesh,Tirupati,"Vaikuntapuram, Tirupati - APPCB","03-04-2025 20:00:00",13.615387,79.409230,CO,12,26,16
India,Andhra_Pradesh,Vijayawada,"HB Colony, Vijayawada - APPCB","03-04-2025 20:00:00",16.536107,80.594233,PM10,54,64,59
India,Assam,Guwahati,"Railway Colony, Guwahati - PCBA","03-04-2025 20:00:00",26.181742,91.78063,OZONE,1,65,32
India,Assam,Nagaon,"Christianpatty, Nagaon - PCBA","03-04-2025 20:00:00",26.349082,92.68449,PM10,29,144,93
India,Assam,Nalbari,"Bata Chowk, Nalbari - PCBA","03-04-2025 20:00:00",26.446912,91.439057,NH3,NA,NA,NA
India,Assam,Nalbari,"Bata Chowk, Nalbari - PCBA","03-04-2025 20:00:00",26.446912,91.439057,CO,32,62,42
India,Assam,Silchar,"Tarapur, Silchar - PCBA","03-04-2025 20:00:00",24.82827,92.79525,PM2.5,39,61,53
India,Assam,Silchar,"Tarapur, Silchar - PCBA","03-04-2025 20:00:00",24.82827,92.79525,PM10,51,66,57
India,Assam,Silchar,"Tarapur, Silchar - PCBA","03-04-2025 20:00:00",24.82827,92.79525,CO,17,38,34
India,Arunachal_Pradesh,Naharlagun,"Naharlagun, Naharlagun - APSPCB","03-04-2025 20:00:00",27.103358,93.679645,PM2.5,67,197,99
India,Arunachal_Pradesh,Naharlagun,"Naharlagun, Naharlagun - APSPCB","03-04-2025 20:00:00",27.103358,93.679645,PM10,74,147,100
India,Arunachal_Pradesh,Naharlagun,"Naharlagun, Naharlagun - APSPCB","03-04-2025 20:00:00",27.103358,93.679645,CO,18,37,20
India,Assam,Byrnihat,"Central Academy for SFS, Byrnihat - PCBA","03-04-2025 20:00:00",26.071318,91.87488,NO2,9,21,14
India,Andhra_Pradesh,Vijayawada,"HB Colony, Vijayawada - APPCB","03-04-2025 20:00:00",16.536107,80.594233,OZONE,2,16,11
India,Andhra_Pradesh,Vijayawada,"Kanuru, Vijayawada - APPCB","03-04-2025 20:00:00",16.486692,80.699436,NO2,24,69,42
India,Andhra_Pradesh,Vijayawada,"Rajiv Gandhi Park, Vijayawada - APPCB","03-04-2025 20:00:00",16.509717,80.612222,PM2.5,64,90,77
India,Andhra_Pradesh,Vijayawada,"Rajiv Gandhi Park, Vijayawada - APPCB","03-04-2025 20:00:00",16.509717,80.612222,OZONE,6,16,11
India,Andhra_Pradesh,Anantapur,"Gulzarpet, Anantapur - APPCB","03-04-2025 20:00:00",14.675886,77.593027,NO2,23,38,29
India,Andhra_Pradesh,Anantapur,"Gulzarpet, Anantapur - APPCB","03-04-2025 20:00:00",14.675886,77.593027,CO,13,18,17
India,Andhra_Pradesh,Anantapur,"Gulzarpet, Anantapur - APPCB","03-04-2025 20:00:00",14.675886,77.593027,OZONE,4,29,25
India,Andhra_Pradesh,Kadapa,"Yerramukkapalli, Kadapa - APPCB","03-04-2025 20:00:00",14.465052,78.824187,SO2,15,16,15
India,Andhra_Pradesh,Vijayawada,"Rajiv Nagar, Vijayawada - APPCB","03-04-2025 20:00:00",16.554731,80.649110,NH3,3,4,3
India,Andhra_Pradesh,Vijayawada,"Rajiv Nagar, Vijayawada - APPCB","03-04-2025 20:00:00",16.554731,80.649110,OZONE,34,175,60
India,Andhra_Pradesh,Visakhapatnam,"GVM Corporation, Visakhapatnam - APPCB","03-04-2025 20:00:00",17.72,83.3,PM2.5,9,47,23
India,Assam,Guwahati,"IITG, Guwahati - PCBA","03-04-2025 20:00:00",26.2028636,91.70046436,OZONE,17,79,44
India,Assam,Guwahati,"LGBI Airport, Guwahati - PCBA","03-04-2025 20:00:00",26.10887,91.589544,NH3,16,21,17
India,Assam,Guwahati,"Railway Colony, Guwahati - PCBA","03-04-2025 20:00:00",26.181742,91.78063,PM10,109,250,142
India,"Andaman and Nicobar","Sri Vijaya Puram","Police Line, Sri Vijaya Puram - ANPCC","03-04-2025 20:00:00",11.654054,92.734055,NO2,8,28,20
India,Andhra_Pradesh,Amaravati,"Secretariat, Amaravati - APPCB","03-04-2025 20:00:00",16.5150833,80.5181667,PM10,34,100,47
India,Assam,Byrnihat,"Central Academy for SFS, Byrnihat - PCBA","03-04-2025 20:00:00",26.071318,91.87488,CO,34,72,57
India,Assam,Sivasagar,"Girls College, Sivasagar - PCBA","03-04-2025 20:00:00",26.987634,94.636574,PM10,50,99,75
India,Bihar,Gaya,"Collectorate, Gaya - BSPCB","03-04-2025 20:00:00",24.7955,84.9994,CO,18,107,42
India,Bihar,Gaya,"Collectorate, Gaya - BSPCB","03-04-2025 20:00:00",24.7955,84.9994,OZONE,19,22,20
India,Bihar,Gaya,"Kareemganj, Gaya - BSPCB","03-04-2025 20:00:00",24.792403,84.992416,CO,7,106,19
India,Bihar,Gaya,"SFTI Kusdihra, Gaya - BSPCB","03-04-2025 20:00:00",24.762518,84.982348,SO2,8,10,9
India,Bihar,Hajipur,"Industrial Area, Hajipur - BSPCB","03-04-2025 20:00:00",25.697189,85.245900,CO,24,50,29
India,Bihar,Katihar,"Mirchaibari, Katihar - BSPCB","03-04-2025 20:00:00",25.560083,87.553265,CO,19,40,27
India,Bihar,Manguraha,"Forest Rest House, Manguraha - BSPCB","03-04-2025 20:00:00",27.308328,84.531742,NO2,5,31,22
India,Bihar,Motihari,"Gandak Colony, Motihari - BSPCB","03-04-2025 20:00:00",26.63086,84.90051,PM2.5,NA,NA,NA
India,Bihar,Munger,"Town Hall, Munger - BSPCB","03-04-2025 20:00:00",25.376776,86.471523,NO2,22,24,23
India,Bihar,Munger,"Town Hall, Munger - BSPCB","03-04-2025 20:00:00",25.376776,86.471523,CO,20,36,23
India,Bihar,Muzaffarpur,"Buddha Colony, Muzaffarpur - BSPCB","03-04-2025 20:00:00",26.11442,85.39813,NH3,9,14,12
India,Bihar,Arrah,"New DM Office, Arrah - BSPCB","03-04-2025 20:00:00",25.5626095,84.663264,PM10,58,182,100
India,Bihar,Arrah,"New DM Office, Arrah - BSPCB","03-04-2025 20:00:00",25.5626095,84.663264,CO,13,28,23
India,Bihar,Aurangabad,"Gurdeo Nagar, Aurangabad - BSPCB","03-04-2025 20:00:00",24.75746,84.366208,PM10,39,330,167
India,Bihar,Aurangabad,"Gurdeo Nagar, Aurangabad - BSPCB","03-04-2025 20:00:00",24.75746,84.366208,NH3,1,1,1
India,Bihar,Buxar,"Charitra Van, Buxar - BSPCB","03-04-2025 20:00:00",25.567520,83.966379,PM10,70,151,102
India,Bihar,Buxar,"Charitra Van, Buxar - BSPCB","03-04-2025 20:00:00",25.567520,83.966379,SO2,8,16,12
India,Bihar,Gaya,"Collectorate, Gaya - BSPCB","03-04-2025 20:00:00",24.7955,84.9994,PM2.5,23,304,113
India,Bihar,Bettiah,"Kamalnath Nagar, Bettiah - BSPCB","03-04-2025 20:00:00",26.80365,84.51954,NH3,2,5,2
India,Bihar,Bettiah,"Kamalnath Nagar, Bettiah - BSPCB","03-04-2025 20:00:00",26.80365,84.51954,SO2,10,20,17
India,Bihar,Bettiah,"Kamalnath Nagar, Bettiah - BSPCB","03-04-2025 20:00:00",26.80365,84.51954,CO,16,104,60
India,Bihar,Begusarai,"Lohiyanagar, Begusarai - BSPCB","03-04-2025 20:00:00",25.42742023,86.13886079,PM10,5,308,136
India,Bihar,Muzaffarpur,"Buddha Colony, Muzaffarpur - BSPCB","03-04-2025 20:00:00",26.11442,85.39813,OZONE,1,91,70
India,Bihar,Araria,"Kharahiya Basti, Araria - BSPCB","03-04-2025 20:00:00",26.146529,87.454184,PM10,101,195,141
India,Bihar,Aurangabad,"Gurdeo Nagar, Aurangabad - BSPCB","03-04-2025 20:00:00",24.75746,84.366208,SO2,12,18,14
India,Bihar,Muzaffarpur,"Muzaffarpur Collectorate, Muzaffarpur - BSPCB","03-04-2025 20:00:00",26.1209,85.3647,SO2,4,6,5
India,Bihar,Muzaffarpur,"Muzaffarpur Collectorate, Muzaffarpur - BSPCB","03-04-2025 20:00:00",26.1209,85.3647,CO,16,32,32
India,Bihar,Patna,"DRM Office Danapur, Patna - BSPCB","03-04-2025 20:00:00",25.586562,85.043586,NO2,27,36,32
India,Bihar,Patna,"DRM Office Danapur, Patna - BSPCB","03-04-2025 20:00:00",25.586562,85.043586,CO,26,90,45
India,Bihar,Patna,"DRM Office Danapur, Patna - BSPCB","03-04-2025 20:00:00",25.586562,85.043586,OZONE,2,29,22
India,Bihar,Patna,"Govt. High School Shikarpur, Patna - BSPCB","03-04-2025 20:00:00",25.592539,85.227158,CO,36,98,58
India,Bihar,Samastipur,"DM Office_Kasipur, Samastipur - BSPCB","03-04-2025 20:00:00",25.859655,85.77944,PM2.5,22,147,69
India,Bihar,Samastipur,"DM Office_Kasipur, Samastipur - BSPCB","03-04-2025 20:00:00",25.859655,85.77944,NO2,1,3,1
India,Bihar,Samastipur,"DM Office_Kasipur, Samastipur - BSPCB","03-04-2025 20:00:00",25.859655,85.77944,NH3,2,2,2
India,Bihar,Samastipur,"DM Office_Kasipur, Samastipur - BSPCB","03-04-2025 20:00:00",25.859655,85.77944,SO2,16,42,32
India,Bihar,Sasaram,"Dada Peer, Sasaram - BSPCB","03-04-2025 20:00:00",24.952822,84.002396,OZONE,NA,NA,NA
India,Bihar,Siwan,"Chitragupta Nagar, Siwan - BSPCB","03-04-2025 20:00:00",26.2271665,84.3570427,PM2.5,NA,NA,NA
India,Bihar,Patna,"Muradpur, Patna - BSPCB","03-04-2025 20:00:00",25.619651,85.147382,SO2,5,8,6
India,Bihar,Purnia,"Mariam Nagar, Purnia - BSPCB","03-04-2025 20:00:00",25.366336,87.117468,CO,18,96,40
India,Bihar,Rajgir,"Dangi Tola, Rajgir - BSPCB","03-04-2025 20:00:00",25.03280,85.41948,OZONE,32,37,33
India,Bihar,Siwan,"Chitragupta Nagar, Siwan - BSPCB","03-04-2025 20:00:00",26.2271665,84.3570427,NH3,1,2,1
India,Bihar,Siwan,"Chitragupta Nagar, Siwan - BSPCB","03-04-2025 20:00:00",26.2271665,84.3570427,CO,64,105,89
India,Chandigarh,Chandigarh,"Sector 22, Chandigarh - CPCC","03-04-2025 20:00:00",30.735567,76.775714,PM2.5,30,85,57
India,Chhattisgarh,Korba,"Rampur, Korba - CECB","03-04-2025 20:00:00",22.368195,82.746431,CO,38,60,50
India,Chhattisgarh,Korba,"Urja Nagar, Korba - CECB","03-04-2025 20:00:00",22.348441,82.549611,PM10,89,144,120
India,Chhattisgarh,Korba,"Urja Nagar, Korba - CECB","03-04-2025 20:00:00",22.348441,82.549611,NH3,1,4,3
India,Chandigarh,Chandigarh,"Sector-53, Chandigarh - CPCC","03-04-2025 20:00:00",30.719859,76.738637,SO2,9,29,18
India,Chhattisgarh,Bhilai,"32Bungalows, Bhilai - CECB","03-04-2025 20:00:00",21.194815,81.314770,PM2.5,49,82,64
India,Bihar,Muzaffarpur,"MIT-Daudpur Kothi, Muzaffarpur - BSPCB","03-04-2025 20:00:00",26.1403345,85.3650192,NO2,14,18,15
India,Bihar,Patna,"IGSC Planetarium Complex, Patna - BSPCB","03-04-2025 20:00:00",25.610369,85.132568,OZONE,42,61,54
India,Chhattisgarh,Bilaspur,"Mangala, Bilaspur - NTPC","03-04-2025 20:00:00",22.08815,82.13737,NO2,18,37,25
India,Chhattisgarh,Kunjemura,"OP Jindal School, Kunjemura - CECB","03-04-2025 20:00:00",22.126650,83.483212,SO2,4,8,6
India,Chhattisgarh,Kunjemura,"OP Jindal School, Kunjemura - CECB","03-04-2025 20:00:00",22.126650,83.483212,CO,42,68,47
India,Chhattisgarh,Milupara,"Govt. Higher Secondary School, Milupara - CECB","03-04-2025 20:00:00",22.1910172,83.5197009,PM2.5,NA,NA,NA
India,Chhattisgarh,Milupara,"Govt. Higher Secondary School, Milupara - CECB","03-04-2025 20:00:00",22.1910172,83.5197009,PM10,NA,NA,NA
India,Chhattisgarh,Milupara,"Govt. Higher Secondary School, Milupara - CECB","03-04-2025 20:00:00",22.1910172,83.5197009,NO2,NA,NA,NA
India,Chhattisgarh,Milupara,"Govt. Higher Secondary School, Milupara - CECB","03-04-2025 20:00:00",22.1910172,83.5197009,NH3,NA,NA,NA
India,Chhattisgarh,Milupara,"Govt. Higher Secondary School, Milupara - CECB","03-04-2025 20:00:00",22.1910172,83.5197009,CO,27,38,31
India,Delhi,Delhi,"Chandni Chowk, Delhi - IITM","03-04-2025 20:00:00",28.656756,77.227234,SO2,NA,NA,NA
India,Delhi,Delhi,"DTU, Delhi - CPCB","03-04-2025 20:00:00",28.7500499,77.1112615,CO,20,55,31
India,Delhi,Delhi,"DTU, Delhi - CPCB","03-04-2025 20:00:00",28.7500499,77.1112615,OZONE,29,71,39
India,Delhi,Delhi,"Dwarka-Sector 8, Delhi - DPCC ","03-04-2025 20:00:00",28.5710274,77.0719006,NH3,7,15,12
India,Delhi,Delhi,"Dwarka-Sector 8, Delhi - DPCC ","03-04-2025 20:00:00",28.5710274,77.0719006,CO,2,184,154
India,Delhi,Delhi,"Anand Vihar, Delhi - DPCC","03-04-2025 20:00:00",28.647622,77.3158090,PM2.5,23,387,255
India,Delhi,Delhi,"Anand Vihar, Delhi - DPCC","03-04-2025 20:00:00",28.647622,77.3158090,NH3,1,9,4
India,Delhi,Delhi,"Anand Vihar, Delhi - DPCC","03-04-2025 20:00:00",28.647622,77.3158090,OZONE,2,40,23
India,Delhi,Delhi,"Aya Nagar, Delhi - IMD","03-04-2025 20:00:00",28.4706914,77.1099364,NO2,NA,NA,NA
India,Delhi,Delhi,"IGI Airport (T3), Delhi - IMD","03-04-2025 20:00:00",28.5627763,77.1180053,PM2.5,NA,NA,NA
India,Delhi,Delhi,"ITO, Delhi - CPCB","03-04-2025 20:00:00",28.628624,77.241060,PM10,47,229,144
India,Delhi,Delhi,"ITO, Delhi - CPCB","03-04-2025 20:00:00",28.628624,77.241060,SO2,5,30,15
India,Delhi,Delhi,"CRRI Mathura Road, Delhi - IMD","03-04-2025 20:00:00",28.5512005,77.2735737,PM2.5,NA,NA,NA
India,Delhi,Delhi,"CRRI Mathura Road, Delhi - IMD","03-04-2025 20:00:00",28.5512005,77.2735737,CO,6,154,43
India,Delhi,Delhi,"Chandni Chowk, Delhi - IITM","03-04-2025 20:00:00",28.656756,77.227234,PM10,NA,NA,NA
India,Chhattisgarh,Milupara,"Govt. Higher Secondary School, Milupara - CECB","03-04-2025 20:00:00",22.1910172,83.5197009,OZONE,22,27,24
India,Chhattisgarh,Raipur,"AIIMS, Raipur - CECB","03-04-2025 20:00:00",21.258815,81.578979,PM2.5,NA,NA,NA
India,Chhattisgarh,Tumidih,"OP Jindal Industrial Park, Tumidih - CECB","03-04-2025 20:00:00",22.06631475,83.33820077,PM2.5,61,91,77
India,Chhattisgarh,Tumidih,"OP Jindal Industrial Park, Tumidih - CECB","03-04-2025 20:00:00",22.06631475,83.33820077,SO2,5,12,7
India,Chhattisgarh,Raipur,"Krishak Nagar, Raipur - CECB","03-04-2025 20:00:00",21.237755,81.705301,PM10,34,115,78
India,Delhi,Delhi,"Jahangirpuri, Delhi - DPCC","03-04-2025 20:00:00",28.732820,77.170633,NO2,29,279,143
India,Delhi,Delhi,"Jahangirpuri, Delhi - DPCC","03-04-2025 20:00:00",28.732820,77.170633,OZONE,1,260,137
India,Delhi,Delhi,"Jawaharlal Nehru Stadium, Delhi - DPCC","03-04-2025 20:00:00",28.580280,77.233829,OZONE,7,77,56
India,Delhi,Delhi,"Lodhi Road, Delhi - IITM","03-04-2025 20:00:00",28.588333,77.221667,NO2,33,187,91
India,Delhi,Delhi,"Lodhi Road, Delhi - IMD","03-04-2025 20:00:00",28.5918245,77.2273074,PM2.5,NA,NA,NA
India,Delhi,Delhi,"Major Dhyan Chand National Stadium, Delhi - DPCC","03-04-2025 20:00:00",28.611281,77.237738,NH3,12,17,15
India,Delhi,Delhi,"Major Dhyan Chand National Stadium, Delhi - DPCC","03-04-2025 20:00:00",28.611281,77.237738,CO,6,127,40
India,Delhi,Delhi,"Major Dhyan Chand National Stadium, Delhi - DPCC","03-04-2025 20:00:00",28.611281,77.237738,OZONE,1,195,125
India,Delhi,Delhi,"Mandir Marg, Delhi - DPCC","03-04-2025 20:00:00",28.636429,77.201067,NH3,7,11,9
India,Delhi,Delhi,"Mandir Marg, Delhi - DPCC","03-04-2025 20:00:00",28.636429,77.201067,CO,1,52,12
India,Delhi,Delhi,"Mandir Marg, Delhi - DPCC","03-04-2025 20:00:00",28.636429,77.201067,OZONE,7,19,12
India,Delhi,Delhi,"Mundka, Delhi - DPCC","03-04-2025 20:00:00",28.684678,77.076574,NO2,27,109,81
India,Delhi,Delhi,"Mundka, Delhi - DPCC","03-04-2025 20:00:00",28.684678,77.076574,OZONE,4,134,74
India,Delhi,Delhi,"NSIT Dwarka, Delhi - CPCB","03-04-2025 20:00:00",28.60909,77.0325413,PM10,50,242,166
India,Delhi,Delhi,"Najafgarh, Delhi - DPCC","03-04-2025 20:00:00",28.570173,76.933762,PM2.5,12,315,155
India,Delhi,Delhi,"Najafgarh, Delhi - DPCC","03-04-2025 20:00:00",28.570173,76.933762,SO2,5,23,13
India,Delhi,Delhi,"Punjabi Bagh, Delhi - DPCC","03-04-2025 20:00:00",28.674045,77.131023,SO2,21,64,37
India,Delhi,Delhi,"Pusa, Delhi - DPCC","03-04-2025 20:00:00",28.639652,77.146275,NO2,26,189,93
India,Delhi,Delhi,"Pusa, Delhi - DPCC","03-04-2025 20:00:00",28.639652,77.146275,NH3,4,14,10
India,Delhi,Delhi,"Pusa, Delhi - DPCC","03-04-2025 20:00:00",28.639652,77.146275,CO,10,85,41
India,Delhi,Delhi,"R K Puram, Delhi - DPCC","03-04-2025 20:00:00",28.563262,77.186937,PM2.5,30,413,204
India,Delhi,Delhi,"R K Puram, Delhi - DPCC","03-04-2025 20:00:00",28.563262,77.186937,OZONE,11,16,13
India,Delhi,Delhi,"Rohini, Delhi - DPCC","03-04-2025 20:00:00",28.732528,77.119920,NO2,10,142,80
India,Delhi,Delhi,"Rohini, Delhi - DPCC","03-04-2025 20:00:00",28.732528,77.119920,NH3,6,12,9
India,Delhi,Delhi,"Narela, Delhi - DPCC","03-04-2025 20:00:00",28.822836,77.101981,CO,18,92,31
India,Delhi,Delhi,"Nehru Nagar, Delhi - DPCC","03-04-2025 20:00:00",28.567890,77.250515,CO,4,87,30
India,Delhi,Delhi,"Patparganj, Delhi - DPCC","03-04-2025 20:00:00",28.623763,77.287209,PM2.5,28,336,183
India,Delhi,Delhi,"Patparganj, Delhi - DPCC","03-04-2025 20:00:00",28.623763,77.287209,NO2,14,183,105
India,Delhi,Delhi,"Okhla Phase-2, Delhi - DPCC","03-04-2025 20:00:00",28.530785,77.271255,PM10,74,453,223
India,Delhi,Delhi,"Okhla Phase-2, Delhi - DPCC","03-04-2025 20:00:00",28.530785,77.271255,NH3,6,11,8
India,Delhi,Delhi,"Jahangirpuri, Delhi - DPCC","03-04-2025 20:00:00",28.732820,77.170633,NH3,5,11,8
India,Delhi,Delhi,"Sirifort, Delhi - CPCB","03-04-2025 20:00:00",28.5504249,77.2159377,NH3,10,32,20
India,Gujarat,Vapi,"Phase-1 GIDC, Vapi - GPCB","03-04-2025 20:00:00",20.362421,72.918013,NO2,13,14,14
India,Gujarat,Vapi,"Phase-1 GIDC, Vapi - GPCB","03-04-2025 20:00:00",20.362421,72.918013,NH3,10,10,10
India,Gujarat,Vatva,"Phase-4 GIDC, Vatva - GPCB","03-04-2025 20:00:00",22.969611,72.643500,NH3,2,15,7
India,Haryana,Gurugram,"NISE Gwal Pahari, Gurugram - IMD","03-04-2025 20:00:00",28.422681,77.148944,NO2,NA,NA,NA
India,Haryana,Panchgaon,"Amity University, Panchgaon - IITM","03-04-2025 20:00:00",28.3153,76.9143,CO,9,81,19
India,"Himachal Pradesh",Baddi,"HIMUDA Complex Phase-1, Baddi - HPPCB","03-04-2025 20:00:00",30.943887,76.801991,PM10,66,234,122
India,"Himachal Pradesh",Baddi,"HIMUDA Complex Phase-1, Baddi - HPPCB","03-04-2025 20:00:00",30.943887,76.801991,NO2,4,69,23
India,"Himachal Pradesh",Baddi,"HIMUDA Complex Phase-1, Baddi - HPPCB","03-04-2025 20:00:00",30.943887,76.801991,CO,36,82,42
India,Gujarat,Ahmedabad,"Maninagar, Ahmedabad - GPCB","03-04-2025 20:00:00",23.002657,72.591912,PM10,93,500,238
India,Gujarat,Ahmedabad,"Maninagar, Ahmedabad - GPCB","03-04-2025 20:00:00",23.002657,72.591912,CO,10,86,21
India,Gujarat,Ahmedabad,"Raikhad, Ahmedabad - IITM","03-04-2025 20:00:00",23.020509,72.579261,PM2.5,60,248,135
India,Gujarat,Ahmedabad,"Rakhial, Ahmedabad - IITM","03-04-2025 20:00:00",23.016834,72.625775,PM2.5,NA,NA,NA
India,Gujarat,Ahmedabad,"Rakhial, Ahmedabad - IITM","03-04-2025 20:00:00",23.016834,72.625775,SO2,34,135,92
India,Gujarat,Ahmedabad,"SAC ISRO Bopal, Ahmedabad - IITM","03-04-2025 20:00:00",23.041137,72.456691,PM2.5,69,378,174
India,Delhi,Delhi,"Sri Aurobindo Marg, Delhi - DPCC","03-04-2025 20:00:00",28.531346,77.190156,NO2,6,107,61
India,Delhi,Delhi,"Sri Aurobindo Marg, Delhi - DPCC","03-04-2025 20:00:00",28.531346,77.190156,CO,4,86,14
India,Delhi,Delhi,"Vivek Vihar, Delhi - DPCC","03-04-2025 20:00:00",28.672342,77.315260,NO2,13,112,72
India,Delhi,Delhi,"Wazirpur, Delhi - DPCC","03-04-2025 20:00:00",28.699793,77.165453,OZONE,1,241,150
India,"Himachal Pradesh",Baddi,"HIMUDA Complex Phase-1, Baddi - HPPCB","03-04-2025 20:00:00",30.943887,76.801991,OZONE,29,133,102
India,Jammu_and_Kashmir,Srinagar,"Rajbagh, Srinagar - JKSPCB","03-04-2025 20:00:00",34.066206,74.819820,PM10,38,85,55
India,Gujarat,Ahmedabad,"SVPI Airport Hansol, Ahmedabad - IITM","03-04-2025 20:00:00",23.076793,72.627874,NO2,12,94,57
India,Gujarat,Ahmedabad,"Sardar Vallabhbhai Patel Stadium, Ahmedabad - IITM","03-04-2025 20:00:00",23.043070,72.562968,PM2.5,93,349,178
India,Gujarat,Gandhinagar,"IIPHG Lekawada, Gandhinagar - IITM","03-04-2025 20:00:00",23.243639,72.68994,OZONE,1,174,86
India,Gujarat,Gandhinagar,"Sector-10, Gandhinagar - GPCB","03-04-2025 20:00:00",23.221714,72.654328,PM2.5,32,80,53
India,Gujarat,Gandhinagar,"Sector-10, Gandhinagar - GPCB","03-04-2025 20:00:00",23.221714,72.654328,OZONE,22,23,22
India,Gujarat,Nandesari,"GIDC, Nandesari - Nandesari Ind. Association","03-04-2025 20:00:00",22.410802,73.097923,PM2.5,NA,NA,NA
India,Gujarat,Ahmedabad,"Gyaspur, Ahmedabad - IITM","03-04-2025 20:00:00",22.977134,72.553024,NH3,2,52,16
India,Gujarat,Ahmedabad,"Gyaspur, Ahmedabad - IITM","03-04-2025 20:00:00",22.977134,72.553024,SO2,49,138,100
India,Gujarat,Nandesari,"GIDC, Nandesari - Nandesari Ind. Association","03-04-2025 20:00:00",22.410802,73.097923,NO2,15,75,29
India,Karnataka,Bengaluru,"RVCE-Mailasandra, Bengaluru - KSPCB","03-04-2025 20:00:00",12.921418,77.502466,NH3,2,4,3
India,Karnataka,Bengaluru,"Sanegurava Halli, Bengaluru - KSPCB","03-04-2025 20:00:00",12.990328,77.5431385,NO2,22,39,28
India,Karnataka,Bengaluru,"Sanegurava Halli, Bengaluru - KSPCB","03-04-2025 20:00:00",12.990328,77.5431385,CO,14,42,34
India,Karnataka,Bengaluru,"Shivapura_Peenya, Bengaluru - KSPCB","03-04-2025 20:00:00",13.0246342,77.5080115,OZONE,24,26,24
India,Karnataka,Bengaluru,"Silk Board, Bengaluru - KSPCB","03-04-2025 20:00:00",12.917348,77.622813,PM10,28,128,77
India,Karnataka,Bengaluru,"Silk Board, Bengaluru - KSPCB","03-04-2025 20:00:00",12.917348,77.622813,NO2,11,54,21
India,Karnataka,Bengaluru,"Silk Board, Bengaluru - KSPCB","03-04-2025 20:00:00",12.917348,77.622813,SO2,10,16,12
India,Karnataka,Chamarajanagar,"Urban, Chamarajanagar - KSPCB","03-04-2025 20:00:00",11.55358,76.55521,PM10,30,55,44
India,Karnataka,Chamarajanagar,"Urban, Chamarajanagar - KSPCB","03-04-2025 20:00:00",11.55358,76.55521,NO2,15,35,29
India,Karnataka,Gadag,"Panchal Nagar, Gadag - KSPCB","03-04-2025 20:00:00",15.411456,75.638133,NO2,4,26,14
India,Karnataka,Gadag,"Panchal Nagar, Gadag - KSPCB","03-04-2025 20:00:00",15.411456,75.638133,SO2,17,20,19
India,Karnataka,Haveri,"Ashwini Nagar, Haveri - KSPCB","03-04-2025 20:00:00",14.791800,75.389600,PM2.5,47,55,50
India,Karnataka,Haveri,"Ashwini Nagar, Haveri - KSPCB","03-04-2025 20:00:00",14.791800,75.389600,SO2,25,30,28
India,Karnataka,Hubballi,"Lingaraj Nagar, Hubballi - KSPCB","03-04-2025 20:00:00",15.3714823,75.1160168,NH3,1,3,2
India,Karnataka,Hubballi,"Lingaraj Nagar, Hubballi - KSPCB","03-04-2025 20:00:00",15.3714823,75.1160168,SO2,1,2,2
India,Karnataka,Belgaum,"Ramteerth Nagar, Belgaum - KSPCB","03-04-2025 20:00:00",15.888653,74.541751,NO2,42,96,64
India,Karnataka,Belgaum,"Ramteerth Nagar, Belgaum - KSPCB","03-04-2025 20:00:00",15.888653,74.541751,NH3,2,4,3
India,Karnataka,Bengaluru,"BTM Layout, Bengaluru - CPCB","03-04-2025 20:00:00",12.9135218,77.5950804,NO2,35,41,37
India,Karnataka,Bengaluru,"BTM Layout, Bengaluru - CPCB","03-04-2025 20:00:00",12.9135218,77.5950804,CO,25,32,30
India,Karnataka,Hubballi,"Lingaraj Nagar, Hubballi - KSPCB","03-04-2025 20:00:00",15.3714823,75.1160168,OZONE,13,20,18
India,Karnataka,Kalaburagi,"Lal Bahadur Shastri Nagar, Kalaburagi - KSPCB","03-04-2025 20:00:00",17.321993,76.822628,NO2,5,13,11
India,Karnataka,Kalaburagi,"Lal Bahadur Shastri Nagar, Kalaburagi - KSPCB","03-04-2025 20:00:00",17.321993,76.822628,CO,22,49,23
India,Karnataka,Bengaluru,"Jayanagar 5th Block, Bengaluru - KSPCB","03-04-2025 20:00:00",12.920984,77.584908,NO2,16,17,16
India,Karnataka,Bengaluru,"Peenya, Bengaluru - CPCB","03-04-2025 20:00:00",13.0270199,77.494094,PM10,66,100,79
India,Karnataka,Bengaluru,"Peenya, Bengaluru - CPCB","03-04-2025 20:00:00",13.0270199,77.494094,CO,25,66,46
India,Karnataka,Davanagere,"Devaraj Urs Badavane, Davanagere - KSPCB","03-04-2025 20:00:00",14.475800,75.905200,CO,28,30,29
India,Karnataka,Davanagere,"Devaraj Urs Badavane, Davanagere - KSPCB","03-04-2025 20:00:00",14.475800,75.905200,OZONE,18,19,19
India,Karnataka,Bengaluru,"Jayanagar 5th Block, Bengaluru - KSPCB","03-04-2025 20:00:00",12.920984,77.584908,PM2.5,23,77,53
India,Karnataka,Chamarajanagar,"Urban, Chamarajanagar - KSPCB","03-04-2025 20:00:00",11.55358,76.55521,SO2,3,7,4
India,Karnataka,Bagalkot,"Vidayagiri, Bagalkot - KSPCB","03-04-2025 20:00:00",16.172806,75.659694,SO2,7,7,7
India,Karnataka,Tumakuru,"Thimmalapura, Tumakuru - KSPCB","03-04-2025 20:00:00",13.377516,77.099072,SO2,3,8,6
India,Karnataka,Tumakuru,"Thimmalapura, Tumakuru - KSPCB","03-04-2025 20:00:00",13.377516,77.099072,CO,55,58,57
India,Karnataka,Yadgir,"Collector Office, Yadgir - KSPCB","03-04-2025 20:00:00",16.7602,77.1428,PM10,60,133,78
India,Karnataka,Yadgir,"Collector Office, Yadgir - KSPCB","03-04-2025 20:00:00",16.7602,77.1428,NH3,3,4,3
India,Kerala,Thrissur,"Corporation Ground, Thrissur - Kerala PCB","03-04-2025 20:00:00",10.532400,76.215900,OZONE,27,28,28
India,"Madhya Pradesh",Bhopal,"Idgah Hills, Bhopal - MPPCB","03-04-2025 20:00:00",23.264759,77.381568,PM2.5,33,90,58
India,"Madhya Pradesh",Bhopal,"Idgah Hills, Bhopal - MPPCB","03-04-2025 20:00:00",23.264759,77.381568,PM10,68,198,94
India,Kerala,Kollam,"Polayathode, Kollam - Kerala PCB","03-04-2025 20:00:00",8.8787,76.6073,NO2,9,10,9
India,Kerala,Kollam,"Polayathode, Kollam - Kerala PCB","03-04-2025 20:00:00",8.8787,76.6073,NH3,1,1,1
India,Kerala,Thiruvananthapuram,"Plammoodu, Thiruvananthapuram - Kerala PCB","03-04-2025 20:00:00",8.5149093,76.9435879,NH3,2,3,2
India,Karnataka,Ramanagara,"Vijay Nagar, Ramanagara - KSPCB","03-04-2025 20:00:00",12.733409,77.298051,NH3,1,1,1
India,Karnataka,Ramanagara,"Vijay Nagar, Ramanagara - KSPCB","03-04-2025 20:00:00",12.733409,77.298051,CO,8,50,16
India,Karnataka,Shivamogga,"Vinoba Nagara, Shivamogga - KSPCB","03-04-2025 20:00:00",13.940000,75.555917,CO,4,36,20
India,Kerala,Eloor,"Udyogamandal, Eloor - Kerala PCB","03-04-2025 20:00:00",10.073232,76.302765,CO,10,100,75
India,Kerala,Kannur,"Thavakkara, Kannur - Kerala PCB","03-04-2025 20:00:00",11.875000,75.373200,PM2.5,48,53,50
India,Karnataka,Kalaburagi,"Mahatma Basaveswar Colony, Kalaburgi - KSPCB","03-04-2025 20:00:00",17.336318,76.847397,PM10,26,84,44
India,Karnataka,Kalaburagi,"Mahatma Basaveswar Colony, Kalaburgi - KSPCB","03-04-2025 20:00:00",17.336318,76.847397,NO2,8,20,15
India,Karnataka,Kalaburagi,"Mahatma Basaveswar Colony, Kalaburgi - KSPCB","03-04-2025 20:00:00",17.336318,76.847397,NH3,2,4,3
India,Karnataka,Kalaburagi,"Mahatma Basaveswar Colony, Kalaburgi - KSPCB","03-04-2025 20:00:00",17.336318,76.847397,OZONE,2,14,8
India,Karnataka,Mysuru,"Hebbal 1st Stage, Mysuru - KSPCB","03-04-2025 20:00:00",12.21041,76.37376,PM10,34,59,42
India,Karnataka,Mysuru,"Hebbal 1st Stage, Mysuru - KSPCB","03-04-2025 20:00:00",12.21041,76.37376,CO,5,42,18
India,"Madhya Pradesh",Damoh,"Shrivastav Colony, Damoh - MPPCB","03-04-2025 20:00:00",23.81748678,79.446246,PM2.5,19,52,37
India,"Madhya Pradesh",Damoh,"Shrivastav Colony, Damoh - MPPCB","03-04-2025 20:00:00",23.81748678,79.446246,PM10,23,61,44
